FOD_ID,FIRE_NAME,STAT_CAUSE_DESCR,FIRE_SIZE,FIRE_SIZE_CLASS,LATITUDE,LONGITUDE,STATE,distance,air_temperature,relative_humidity,wind_speed,precipitation,AQI_AGGREGATE
300201647,SAWMILL,Lightning,0.1,0,38.63361111,-119.78944444,CA,6.014,10.328,99.0,0.0,374.7135,0.0
300201649,EAGLE 2,Lightning,120.0,0,38.22472222,-119.38194444,CA,7.435,5.395,49.0,0.45,202.438,0.0
300201650,GOLDEN GATE,Lightning,0.25,0,38.52805556,-119.55333333,CA,6.33666666666667,14.4333333333333,49.0,0.915,409.27866666666705,0.0
300201651,LEAVITT,Miscellaneous,1.0,0,38.365,-119.52361111,CA,4.194,8.96,48.34,0.715,570.23,0.0
300201652,VAQUERO,Lightning,0.1,0,38.55083333,-119.61166667,CA,6.54333333333333,14.39,28.0,1.79,356.446666666667,0.0
300201656,DIXON,Lightning,1.6,0,38.595,-119.67777778,CA,7.632,6.318,70.0,0.0,404.8125,0.0
300201658,HOT SPRINGS,Lightning,0.1,0,38.69861111,-119.79972222,CA,3.46,13.5825,69.0,0.9,287.9725,0.0
300201659,CORRAL,Lightning,0.1,0,38.49611111,-119.59861111,CA,6.05666666666667,14.7,51.0,1.585,415.967333333333,0.0
300201660,SNODGRASS,Lightning,0.1,0,38.48388889,-119.59805556,CA,6.12666666666667,14.7,51.0,1.585,415.967333333333,0.0
300201661,SILVER,Lightning,0.1,0,38.56083333,-119.58944444,CA,6.28,15.2033333333333,49.0,3.13,368.72333333333296,0.0
300201663,EVANS,Lightning,0.1,0,39.68138889,-120.08722222,CA,8.52,16.11,59.0,0.45,110.744,0.0
300201664,NOBLE,Lightning,0.1,0,38.595,-119.74583333,CA,6.61,14.734,47.0,0.0,518.541,0.0
300201665,TAMARACK,Lightning,0.1,0,38.46583333,-119.62222222,CA,9.425,7.795,48.84,0.895,91.44,0.0
300201666,TAMARACK 2,Lightning,0.1,0,38.46472222,-119.62222222,CA,9.36,7.795,48.84,0.895,91.44,0.0
300201691,ROBINSON,Lightning,0.1,0,38.1575,-119.37527778,CA,8.15333333333333,6.39333333333333,93.0,0.9,280.035,0.0
300201692,GROUSE,Lightning,0.25,0,38.44027778,-119.45861111,CA,6.3625,14.2175,40.16,0.76,405.553333333333,0.0
300201694,SUMMER,Lightning,0.1,0,38.15861111,-119.27027778,CA,7.23333333333333,12.8533333333333,82.44,0.67,277.114,0.0
300201695,BIRTHDAY,Lightning,0.1,0,38.34694444,-119.3425,CA,7.6275,4.63,85.79,0.3,365.379,0.0
300201696,CHRIS FLAT,Lightning,0.1,0,38.39972222,-119.45583333,CA,5.705,12.5,66.78,0.245,486.833333333333,0.0
300201698,OBSIDIAN,Lightning,0.33,0,38.29472222,-119.45805556,CA,6.994,10.54,70.64,0.09,607.906666666667,0.0
300201701,SILVER CREEK,Campfire,0.1,0,38.36611111,-119.52527778,CA,4.204,4.22,79.54,0.56,41.275,27.3333333333333
300201761,RED,Lightning,0.1,0,37.5325,-118.72388889,CA,5.79666666666667,11.0733333333333,39.155,0.45,483.362,0.0
300201762,ALPERS,Lightning,0.1,0,37.725,-118.79888889,CA,7.69,3.055,72.565,2.885,1.524,0.0
300201763,UPPER GORGE,Campfire,0.1,0,37.53888889,-118.59222222,CA,7.29,-2.5,32.0,0.45,394.462,0.0
300201764,UPPER GORGE 2,Campfire,0.1,0,37.53444444,-118.59805556,CA,6.97,-2.5,32.0,0.45,394.462,0.0
300201765,LAKE SABRINA,Lightning,0.1,0,37.19444444,-118.62944444,CA,6.16,4.63,81.0,0.49,192.532,0.0
300201766,SAND,Miscellaneous,0.25,0,37.53583333,-118.69361111,CA,3.86,-1.945,72.0,1.79,510.54,0.0
300201767,MONTGOMERY,Lightning,0.1,0,37.83527778,-118.37083333,CA,5.365,17.58,51.5,0.94,97.282,0.0
300201768,WHISKEY,Lightning,0.1,0,41.44861111,-122.96555556,CA,3.9,16.11,83.0,0.0,,0.0
300201769,PEAK,Lightning,0.1,0,41.26,-122.77333333,CA,3.31666666666667,18.1466666666667,25.0,2.23,459.062666666667,0.0
300201772,WRIGHT,Lightning,0.07,0,41.59055556,-123.07416667,CA,7.28,16.11,56.0,1.34,13.97,0.0
300201773,SPECIMEN,Lightning,0.25,0,41.375,-123.16472222,CA,6.42,18.61,56.0,1.34,867.156,0.0
300201775,GRIZZLY,Lightning,0.06,0,41.06277778,-123.05444444,CA,7.62,11.39,,,542.544,0.0
300201776,HUNTING GROUND,Lightning,0.53,0,41.61805556,-123.3325,CA,6.02,22.22,47.0,0.45,1224.026,0.0
300201777,POKER,Lightning,0.1,0,41.94027778,-123.52083333,CA,5.32,7.22,100.0,0.0,706.12,0.0
300201778,HORNET,Lightning,0.1,0,41.86416667,-123.44194444,CA,4.56,7.78,78.0,2.23,924.814,0.0
300201779,SHARPS,Lightning,0.1,0,41.85638889,-123.42638889,CA,3.75,7.78,78.0,2.23,924.814,0.0
300201780,LADD,Lightning,0.1,0,41.84138889,-123.155,CA,3.26,16.67,68.0,0.0,209.296,0.0
300201781,DOOLITTLE,Lightning,0.1,0,41.84166667,-123.39916667,CA,2.61,6.67,100.0,2.68,928.878,0.0
300201782,WALKER,Lightning,0.75,0,41.83777778,-123.13888889,CA,3.49,12.22,99.0,0.0,226.06,0.0
300201783,CADE,Lightning,0.08,0,41.84055556,-123.33611111,CA,1.53,17.22,61.0,1.34,0.0,0.0
300201784,LIGHTNING,Lightning,0.5,0,41.84027778,-123.15666667,CA,3.15,16.11,64.0,0.0,220.726,0.0
300201785,SCHUTTE,Lightning,0.6,0,41.82805556,-123.11722222,CA,9.28,14.44,90.0,4.47,5.334,0.0
300201786,HICKS,Lightning,0.1,0,41.79277778,-123.07222222,CA,6.32,16.11,67.0,0.0,0.762,0.0
300201787,DEAD MANS,Lightning,0.1,0,41.83666667,-123.28027778,CA,4.06,17.22,61.0,1.34,0.0,0.0
300201788,CHINA,Lightning,0.1,0,41.84666667,-123.28083333,CA,3.83,17.22,61.0,1.34,0.0,0.0
300201789,MILES,Lightning,0.5,0,41.8375,-123.28305556,CA,3.91,16.11,70.0,0.9,2.54,0.0
300201790,FLAT,Lightning,0.1,0,41.925,-123.54,CA,5.14,8.89,98.0,0.0,714.756,0.0
300201791,CLOUSON,Lightning,0.1,0,41.85361111,-123.45027778,CA,4.98,20.56,41.0,1.79,19.304,0.0
300201792,GRANITE,Lightning,0.1,0,41.585,-123.30194444,CA,8.38,22.22,37.0,0.9,6.096,0.0
300201793,EVANS,Lightning,0.1,0,41.82722222,-123.28027778,CA,4.35,17.22,61.0,1.34,0.0,0.0
300201794,KELLY,Lightning,0.25,0,41.92972222,-123.54111111,CA,9.96,,,,1510.792,0.0
300201795,FISH,Lightning,0.1,0,41.71166667,-123.18138889,CA,6.01,20.0,44.0,0.45,226.314,0.0
300201796,BENJAMIN,Lightning,0.1,0,41.76805556,-123.43305556,CA,8.04,16.39,85.0,1.565,2.159,0.0
300201797,PERKINS,Lightning,0.1,0,41.80027778,-123.41194444,CA,5.01,15.56,40.0,2.68,923.036,0.0
300201798,NIAGRA,Lightning,0.25,0,41.63972222,-123.47555556,CA,1.65,18.33,91.0,0.9,1224.026,0.0
300201799,FIVEMILE,Lightning,80.0,0,41.75472222,-123.51833333,CA,8.59,22.22,37.0,0.9,6.096,0.0
300201800,TENMILE,Lightning,0.1,0,41.75944444,-123.52305556,CA,8.99,22.22,37.0,0.9,6.096,0.0
300201801,WALKER 2,Lightning,0.1,0,41.79333333,-123.17555556,CA,0.48,20.0,44.0,0.45,226.314,0.0
300201802,JOE,Lightning,0.1,0,41.84138889,-123.28833333,CA,3.56,17.22,61.0,1.34,0.0,0.0
300201803,BOOT,Lightning,0.5,0,41.66694444,-123.49138889,CA,2.93,16.67,100.0,2.23,1.778,0.0
300201804,DEADMAN,Lightning,0.1,0,41.84305556,-123.46166667,CA,5.66,7.78,78.0,2.23,924.814,0.0
300201805,LA HONDA,Lightning,0.1,0,41.63666667,-121.85888889,CA,3.33,18.89,54.0,0.9,0.0,0.0
300201806,SHARP,Lightning,0.2,0,41.71583333,-121.81638889,CA,5.16,17.78,63.0,1.79,657.606,0.0
300201807,CEDARWELL,Lightning,0.1,0,41.72,-121.82916667,CA,5.61,13.89,78.0,0.9,660.908,0.0
300201808,BRAY,Lightning,0.1,0,41.635,-121.97083333,CA,9.1,18.33,42.0,0.45,0.508,0.0
300201809,ANTELOPE,Lightning,0.1,0,41.67,-121.91916667,CA,6.68,18.33,42.0,0.45,0.508,0.0
300201810,POLIC,Lightning,0.1,0,41.62166667,-121.9175,CA,6.5,9.44,94.0,0.45,9.652,0.0
300201811,WELLS,Lightning,0.1,0,41.70277778,-121.81805556,CA,4.3,17.78,63.0,1.79,657.606,0.0
300201812,CEDAR,Lightning,0.1,0,41.70611111,-121.8325,CA,4.78,18.33,42.0,0.45,0.508,0.0
300201813,SISTERS,Lightning,0.1,0,41.75194444,-121.72666667,CA,8.31,18.89,54.0,0.9,0.0,0.0
300201814,KELLY,Lightning,0.1,0,41.66861111,-121.68111111,CA,7.42333333333334,18.3333333333333,51.0,1.79,99.187,0.0
300201815,DRY LAKE,Lightning,0.1,0,41.61666667,-121.97194444,CA,9.32,9.44,94.0,0.45,9.652,0.0
300201816,BREMMER,Lightning,0.6,0,41.62444444,-121.75527778,CA,5.1,9.165,89.0,0.9,6.858,0.0
300201817,DEER.,Lightning,2.7,0,41.64,-122.1,CA,8.93,6.11,93.0,0.67,309.372,0.0
300201819,PRARIE,Miscellaneous,67.92,0,41.63638889,-121.86277778,CA,3.54,15.56,45.0,0.45,14.224,0.0
300201820,LONG,Debris Burning,0.9,0,41.59055556,-121.90833333,CA,6.89,3.89,90.0,0.45,30.226,0.0
300201821,DUTCH,Lightning,0.1,0,41.84861111,-122.73916667,CA,8.02333333333333,18.6933333333333,65.6666666666667,0.926666666666667,0.0,0.0
300201822,VESA,Lightning,0.2,0,41.84527778,-122.74944444,CA,7.11,15.43,94.0,0.555,30.48,0.0
300201823,HOWARDS,Lightning,25.18,0,41.82861111,-123.04,CA,7.83,20.555,42.5,0.895,25.527,0.0
300201824,BALDY,Lightning,0.1,0,41.83722222,-122.88388889,CA,3.645,18.61,71.5,2.24,569.087,0.0
300201826,WILDHORSE,Lightning,0.7,0,41.68194444,-121.73027778,CA,6.61,14.17,63.0,1.79,657.606,0.0
300201827,MCKINNEY,Lightning,0.1,0,41.82222222,-122.89694444,CA,3.485,15.56,81.5,0.225,17.78,0.0
300201828,LUMGREY,Equipment Use,3.72,0,41.93444444,-122.77944444,CA,8.73333333333333,18.8433333333333,50.5,0.505,567.69,0.0
300201830,HORSE,Lightning,0.23,0,41.66527778,-121.7725,CA,5.89,13.885,42.0,0.45,0.508,0.0
300201831,BALL,Lightning,0.1,0,41.80055556,-122.15138889,CA,2.15,15.0,71.0,0.9,31.242,0.0
300201832,GROUSE CREEK,Lightning,0.1,0,41.80027778,-122.84277778,CA,4.27,16.945,69.0,0.0,0.381,0.0
300201833,PINTO,Lightning,0.1,0,41.50611111,-122.02027778,CA,9.99,11.67,64.0,2.68,597.662,0.0
300201834,GULCH,Lightning,6.2,0,41.77694444,-122.80083333,CA,6.365,14.445,64.0,0.67,26.162,45.6666666666667
300201836,HUNGRY,Lightning,0.1,0,41.97861111,-122.75194444,CA,7.405,12.25,91.0,0.56,1193.8,0.0
300201837,HUMBUG,Lightning,0.25,0,41.79111111,-122.74444444,CA,7.17,18.24,67.0,0.695,0.0,41.4444444444444
300201838,DEER CREEK,Lightning,0.2,0,41.99861111,-122.81083333,CA,4.36,13.2,,,1158.24,0.0
300201840,BUCKHORN CREEK,Lightning,0.25,0,41.91222222,-122.96055556,CA,8.565,16.945,69.0,0.0,0.381,0.0
300201841,SISTERS 2,Lightning,0.25,0,41.70888889,-121.73638889,CA,5.46,21.11,30.0,1.34,11.684,0.0
300201842,BULLION MOUNTAIN,Lightning,0.1,0,41.94666667,-122.74888889,CA,8.95,14.09,90.3333333333333,0.28,612.14,0.0
300201843,BAIRD,Lightning,0.1,0,41.56527778,-121.81361111,CA,5.45,9.44,94.0,0.45,9.652,0.0
300201844,MYRTLE,Lightning,0.1,0,41.83972222,-122.89166667,CA,3.79,18.61,71.5,2.24,569.087,0.0
300201846,GROUSE,Lightning,0.1,0,41.82222222,-122.83888889,CA,3.965,16.945,69.0,0.0,0.381,0.0
300201847,HONN,Debris Burning,0.1,0,40.77583333,-121.50527778,CA,7.39,5.0,70.0,0.0,35.56,0.0
300201848,CALTRANS 1,Debris Burning,0.1,0,40.74555556,-121.4675,CA,9.91,3.89,69.0,2.23,217.678,0.0
300201849,WILCOX,Debris Burning,0.1,0,40.74583333,-121.46777778,CA,9.91,11.11,49.0,7.6,262.636,0.0
300201850,RED,Arson,1.0,0,40.77833333,-121.52333333,CA,8.08,7.22,97.0,0.0,65.405,0.0
300201851,SUGER,Debris Burning,0.1,0,40.76361111,-121.49888889,CA,7.115,6.11,95.0,0.0,66.04,0.0
300201852,SIGNAL,Debris Burning,0.1,0,40.65666667,-121.35111111,CA,5.53,10.56,51.0,1.34,20.828,0.0
300201853,HOLE,Lightning,0.1,0,40.68666667,-121.32083333,CA,8.42,21.11,42.0,1.34,0.0,0.0
300201854,BIDWELL,Campfire,0.25,0,40.8175,-121.44944444,CA,8.03,12.22,39.0,2.23,81.534,0.0
300201855,CORDERS,Lightning,0.1,0,40.63388889,-121.32083333,CA,8.00666666666667,10.28,80.5,2.01,21.1666666666667,0.0
300201856,PEAK,Lightning,0.5,0,40.6925,-121.49,CA,4.47,10.0,59.0,6.26,36.576,0.0
300201857,FOREST,Lightning,0.25,0,40.83305556,-121.16916667,CA,6.9,17.78,58.0,1.34,78.74,0.0
300201858,H2 / COYOTE,Campfire,0.25,0,40.69361111,-121.37472222,CA,8.85,10.56,72.0,1.79,100.33,0.0
300201859,POISON FIRE,Lightning,0.1,0,40.65361111,-121.22388889,CA,8.635,9.75,91.5,0.0,492.252,0.0
300201860,PONDEROSA,Lightning,0.1,0,40.06944444,-121.67138889,CA,4.62,6.67,95.0,1.34,80.518,0.0
300201861,WILLOW,Lightning,0.1,0,40.39972222,-121.34972222,CA,6.84666666666667,6.66666666666667,72.5,1.79,29.972,35.6666666666667
300201862,GURNSEY,Miscellaneous,0.21,0,40.29472222,-121.41777778,CA,9.16,-2.22,87.0,0.0,68.834,47.75
300201863,RICE,Lightning,0.1,0,40.40833333,-121.46111111,CA,6.19,5.83,,,1104.646,0.0
300201864,ARCHERY,Lightning,0.1,0,40.23305556,-121.21638889,CA,5.01,10.97,100.0,0.0,173.312666666667,53.5
300201865,ELAM,Lightning,0.25,0,40.22861111,-121.415,CA,8.235,12.5,71.0,2.455,16.891,0.0
300201866,OSPREY,Campfire,0.1,0,40.21027778,-121.14972222,CA,4.41,8.95333333333333,99.0,0.45,564.980666666667,42.5
300201867,WEST,Campfire,0.1,0,40.20388889,-121.12333333,CA,5.2075,9.2525,68.0,0.0,561.170666666667,40.625
300201868,SILVER,Lightning,0.1,0,40.48666667,-121.09833333,CA,7.105,14.72,69.5,0.28,3.81,0.0
300201869,SODA,Lightning,0.5,0,40.06111111,-121.30833333,CA,5.3,13.89,87.0,0.0,1879.6,0.0
300201870,WARNER FIRE,Lightning,0.1,0,40.38416667,-121.32083333,CA,6.62666666666667,12.0366666666667,80.5,0.0,641.731,40.5
300201871,LEMM,Lightning,0.2,0,40.18305556,-121.31638889,CA,8.545,12.885,80.0,0.0,641.35,46.0
300201872,DOMINGO,Lightning,0.1,0,40.35,-121.355,CA,7.6,9.99666666666667,97.5,0.0,633.984,53.5
300201873,CATTLE,Lightning,0.25,0,40.36083333,-121.48055556,CA,6.87,13.61,,,1193.927,0.0
300201874,BRIDGE,Lightning,0.1,0,40.37472222,-121.31805556,CA,6.72333333333333,7.59,92.5,0.9,640.08,45.625
300201875,DEER,Lightning,0.1,0,40.20444444,-121.47055556,CA,6.465,11.39,87.5,1.34,37.973,0.0
300201876,BROWNS,Campfire,0.4,0,40.00777778,-121.51388889,CA,6.395,12.345,24.0,2.23,681.99,0.0
300201877,COYOTE,Lightning,0.3,0,40.20555556,-121.49277778,CA,6.625,13.61,42.5,2.01,59.182,0.0
300201878,PINE,Lightning,0.1,0,40.69472222,-120.7975,CA,6.285,-0.835,93.0,0.0,234.569,0.0
300201879,BARREL,Lightning,0.1,0,40.75194444,-121.00666667,CA,6.0,12.22,92.0,1.79,168.91,0.0
300201880,POLE,Lightning,0.1,0,40.59527778,-121.29333333,CA,9.27,16.11,53.0,0.9,21.717,0.0
300201881,BIG,Lightning,0.25,0,40.63527778,-121.49305556,CA,8.095,11.855,46.0,0.85,50.292,46.0
300201882,GIBRALTER,Miscellaneous,21.0,0,34.48027778,-119.63861111,CA,4.2475,19.1966666666667,55.25,3.66,33.782,39.3571428571429
300201883,SNOW #4,Lightning,0.1,0,34.65777778,-118.84611111,CA,8.77,20.3933333333333,49.8733333333333,2.51,127.381,0.0
300201884,SNOW #1,Lightning,3.4,0,34.66833333,-118.85194444,CA,8.51,21.5833333333333,49.63,2.44,254.762,0.0
300201885,SNOW #3,Lightning,0.4,0,34.65777778,-118.84611111,CA,8.77,20.3933333333333,49.8733333333333,2.51,127.381,0.0
300201886,SNOW #2,Lightning,6.5,0,34.66055556,-118.84638889,CA,8.8175,20.3933333333333,49.8733333333333,2.51,127.381,0.0
300201887,MUD,Lightning,0.1,0,34.81916667,-119.38166667,CA,9.62,16.11,75.0,0.0,64.77,0.0
300201888,RIVER,Lightning,0.1,0,34.82888889,-119.50638889,CA,9.06,16.89,83.0,1.54,,0.0
300201889,RANCH,Lightning,0.1,0,34.80972222,-119.54222222,CA,9.17,16.89,83.0,1.54,,0.0
300201890,CHORRO,Miscellaneous,282.0,0,34.59694444,-119.33055556,CA,8.05,10.9233333333333,76.3,0.225,58.42,0.0
300201891,CASITAS,Children,0.1,0,34.40833333,-119.35027778,CA,4.338,14.786,91.0,0.5,110.49,37.75
300201892,WINDY,Miscellaneous,0.1,0,34.48222222,-119.77305556,CA,3.79,18.98,68.4,1.365,3.302,37.5416666666667
300201893,WASH,Lightning,0.1,0,34.93777778,-119.47638889,CA,8.095,7.165,81.0,2.175,,0.0
300201895,NACIMIENTO,Arson,0.56,0,36.01027778,-121.43472222,CA,8.65666666666667,16.95,42.6666666666667,1.15666666666667,1038.606,0.0
300201897,APACHE,Lightning,0.1,0,34.78861111,-119.33472222,CA,7.46,17.22,45.0,0.0,64.008,0.0
300201898,LILY,Lightning,0.1,0,34.76611111,-119.15777778,CA,6.29,10.835,94.5,0.0,169.164,0.0
300201899,GROUSE,Lightning,0.1,0,34.82805556,-119.19916667,CA,8.58,13.33,58.0,0.0,,0.0
300201903,PACFIC,Lightning,0.1,0,39.23888889,-122.66944444,CA,7.54,18.52,53.6666666666667,3.135,627.464666666667,0.0
300201904,KNEECAP,Lightning,7.0,0,39.55611111,-122.75972222,CA,6.86,18.89,33.0,0.45,23.114,0.0
300201905,PITNEY,Arson,0.2,0,39.20722222,-122.82166667,CA,5.56333333333333,6.665,71.5,2.46,656.505333333333,0.0
300201908,CEDAR RIDGE,Lightning,0.1,0,39.96305556,-123.03388889,CA,9.84,19.165,59.0,4.47,461.899,0.0
300201910,FOSSET,Lightning,0.1,0,41.7875,-120.24694444,CA,5.645,11.945,85.5,1.565,39.878,0.0
300201911,BOLES,Lightning,0.1,0,41.85611111,-120.99805556,CA,7.17,16.67,50.0,0.45,200.406,0.0
300201913,DIAMOND,Lightning,0.1,0,41.92027778,-120.79638889,CA,5.41,14.8133333333333,51.0,0.9,354.584,0.0
300201914,SUGAR,Lightning,0.1,0,41.82833333,-120.31833333,CA,6.04,15.83,46.5,1.565,19.304,0.0
300201915,FANDANGO,Lightning,0.1,0,41.83694444,-120.22833333,CA,5.245,11.945,85.5,1.565,39.878,0.0
300201916,HOWARD,Lightning,0.1,0,41.85555556,-120.25833333,CA,5.665,15.83,46.5,1.565,19.304,0.0
300201917,RIDGE,Lightning,0.6,0,41.63416667,-120.71416667,CA,7.62,19.44,36.0,2.68,42.164,0.0
300201918,MILLER,Miscellaneous,4.3,0,41.2875,-120.88833333,CA,3.56,-1.17,69.0,0.45,322.58,0.0
300201919,HOLE 2,Lightning,0.1,0,41.84333333,-121.00166667,CA,7.18,17.78,53.0,1.34,175.514,0.0
300201920,ASPEN,Lightning,0.1,0,41.83722222,-120.94916667,CA,4.45,12.22,83.0,1.79,205.74,0.0
300201921,HILL,Lightning,0.1,0,41.64638889,-121.58666667,CA,5.225,11.665,75.0,0.0,211.328,0.0
300201922,ASPEN,Lightning,0.1,0,41.48861111,-121.30527778,CA,9.405,6.11,54.0,2.905,38.481,0.0
300201923,ROUND,Lightning,0.1,0,41.435,-121.405,CA,3.03,6.11,53.0,2.68,52.832,0.0
300201924,SAND,Lightning,0.1,0,41.71833333,-121.44722222,CA,6.495,5.835,54.5,2.905,118.11,0.0
300201926,MOWITZ,Lightning,0.1,0,41.7875,-121.02361111,CA,8.76,21.11,25.0,0.9,207.518,0.0
300201927,MUD,Lightning,2.0,0,41.51722222,-121.26722222,CA,7.81,16.67,54.0,1.34,10.668,0.0
300201928,ROUND,Lightning,0.4,0,41.41666667,-121.48194444,CA,1.24,7.22,89.0,1.34,172.974,0.0
300201929,WALKER,Lightning,0.25,0,41.105,-120.835,CA,9.31,9.7,,,591.82,0.0
300201930,MAMMOTH,Lightning,0.25,0,41.67611111,-121.55444444,CA,5.175,10.555,65.0,3.58,210.82,0.0
300201932,YELLOW,Lightning,11.2,0,41.74638889,-121.6125,CA,5.97,21.11,48.0,2.68,198.374,0.0
300201933,VALENTINE SOUTH,Lightning,0.1,0,41.68833333,-121.49166667,CA,5.59,3.06,54.0,2.68,212.09,0.0
300201934,TWIN,Lightning,70.8,0,41.75694444,-121.40111111,CA,6.27,15.0,71.0,1.34,212.09,0.0
300201935,SNELL,Lightning,0.38,0,41.40527778,-121.49222222,CA,2.16,14.44,65.0,2.23,52.578,0.0
300201936,OLD,Lightning,1.25,0,41.525,-121.42805556,CA,8.385,12.5,52.0,2.685,314.325,0.0
300201939,DEEP,Lightning,1.25,0,41.40805556,-121.37833333,CA,4.56,17.78,67.0,3.58,252.984,0.0
300201941,WATER,Lightning,0.1,0,41.39416667,-121.39611111,CA,4.13,17.78,67.0,3.58,252.984,0.0
300201942,LAVA,Lightning,0.1,0,41.46666667,-121.49055556,CA,3.1,17.78,67.0,3.58,252.984,0.0
300201943,FROG,Lightning,4812.0,1,41.39833333,-121.39166667,CA,4.18,22.22,17.0,2.68,45.72,0.0
300201944,HACKAMORE,Lightning,0.4,0,41.585,-121.10666667,CA,5.36,5.7,88.0,1.94,,0.0
300201945,SOUP,Lightning,0.1,0,41.34972222,-120.30888889,CA,6.175,6.39,97.0,2.01,289.941,0.0
300201946,GAGE,Lightning,0.1,0,41.42333333,-121.01694444,CA,7.78,5.56,100.0,0.0,276.86,0.0
300201947,WASHINGTON,Lightning,0.1,0,41.44777778,-120.94055556,CA,3.68,6.67,85.0,0.0,207.772,0.0
300201949,SIBLY,Lightning,0.1,0,41.98138889,-120.58027778,CA,6.97,11.4,,,474.98,0.0
300201953,WHITE,Lightning,15.7,0,41.91416667,-120.85916667,CA,6.80666666666667,13.4166666666667,50.0,0.45,377.52866666666705,0.0
300201954,VALLEY,Lightning,0.1,0,41.82583333,-120.0,CA,7.715,16.115,79.5,1.565,2.54,0.0
300201955,BOTTLE,Lightning,0.5,0,41.70666667,-120.81527778,CA,8.87,11.67,31.0,0.9,205.74,0.0
300201956,WHITNEY,Lightning,0.1,0,41.57055556,-121.14805556,CA,8.72,16.67,54.0,1.34,10.668,0.0
300201958,BIRD,Lightning,0.1,0,41.85833333,-120.90388889,CA,5.52,16.04,53.0,1.34,269.367,0.0
300201959,SOUTH,Lightning,0.1,0,41.82222222,-120.65527778,CA,6.99,12.28,,,411.48,0.0
300201960,PLUM,Lightning,0.1,0,41.73361111,-120.32416667,CA,3.31,-2.78,98.0,0.45,694.69,0.0
300201961,COLD,Lightning,14.2,0,41.80055556,-120.33861111,CA,1.65,9.44,70.0,1.79,39.878,0.0
300201962,FORK,Lightning,0.04,0,41.73361111,-120.3475,CA,3.61,2.78,51.0,1.34,51.816,0.0
300201963,FENDER,Lightning,0.27,0,41.76333333,-120.34833333,CA,1.95,10.56,73.0,0.0,51.816,0.0
300201964,BEAR,Lightning,0.1,0,41.78222222,-120.255,CA,5.695,11.945,85.5,1.565,39.878,0.0
300201965,MDF DG BFSMU01 HAGER,Campfire,0.1,0,41.77694444,-120.76444444,CA,7.165,1.695,66.0,1.79,139.065,0.0
300201966,BROWNS,Lightning,0.3,0,41.60472222,-121.06777778,CA,7.21,11.8,82.0,0.56,,0.0
300201967,LONG,Lightning,1.4,0,41.44888889,-121.44277778,CA,1.82,7.22,89.0,1.34,172.974,0.0
300201968,HOLE,Lightning,0.1,0,41.38833333,-121.455,CA,2.71,7.22,89.0,1.34,172.974,0.0
300201969,SPRINGS,Lightning,0.2,0,41.12833333,-121.75777778,CA,9.405,9.175,85.0,,1099.566,0.0
300201970,BUCKS,Lightning,1.58,0,41.47194444,-121.45805556,CA,3.11,10.56,71.0,2.68,233.172,0.0
300201971,KEPHART,Lightning,5.0,0,41.57638889,-121.28361111,CA,3.64,12.22,85.0,2.68,21.59,0.0
300201972,MOUNTAIN,Lightning,0.2,0,41.53861111,-121.43944444,CA,8.97666666666667,13.7066666666667,54.5,2.235,5.334,0.0
300201976,BARBER,Lightning,0.1,0,41.24638889,-121.01472222,CA,8.07,20.0,47.0,1.34,49.784,0.0
300201977,SLATE,Lightning,0.1,0,41.165,-120.80166667,CA,7.065,12.5,69.0,2.23,339.09,0.0
300201978,SHAKE,Lightning,0.1,0,41.37138889,-120.93972222,CA,6.81,15.0,69.0,2.23,48.26,0.0
300201979,STEELE,Lightning,0.1,0,41.87611111,-120.98083333,CA,6.84,17.78,53.0,1.34,175.514,0.0
300201980,SHEEP,Lightning,1.32,0,41.57583333,-121.27944444,CA,3.73,-2.22,73.0,3.13,295.148,0.0
300201981,OLD,Lightning,1.32,0,41.55,-121.38166667,CA,8.18,7.22,94.5,2.01,234.823,0.0
300201982,PILOT,Lightning,1.0,0,40.59916667,-123.59111111,CA,9.81,20.56,49.0,0.45,11.43,0.0
300201983,BEANS,Lightning,0.4,0,41.48555556,-123.5575,CA,7.4,20.56,56.0,0.45,5.588,0.0
300201985,LONESOME,Lightning,1.0,0,41.47916667,-123.66111111,CA,9.49,25.0,27.0,2.23,4.826,0.0
300201987,THORNE,Debris Burning,0.1,0,41.28583333,-123.5775,CA,8.44,11.11,64.0,0.9,40.132,0.0
300201988,KELLY TWO,Lightning,1.0,0,41.86416667,-123.84388889,CA,6.02666666666667,20.3733333333333,54.6666666666667,2.38333333333333,1964.60533333333,0.0
300201989,SUMMIT,Lightning,639.0,1,41.58777778,-123.79722222,CA,9.71,20.56,22.0,1.79,15.494,0.0
300201990,FEEDER,Lightning,898.0,1,41.60111111,-123.85138889,CA,9.25,20.56,22.0,1.79,15.494,0.0
300201991,BEAR,Lightning,11619.0,1,41.81527778,-123.74833333,CA,6.585,25.28,19.0,3.575,7.239,0.0
300201992,PRESCOTT,Lightning,0.5,0,41.685,-123.72666667,CA,4.63,22.78,27.0,3.13,1378.712,0.0
300201993,PAW,Lightning,10.5,0,41.75166667,-123.68555556,CA,5.88,25.56,15.0,4.02,14.478,0.0
300201995,COON,Lightning,5679.0,1,41.76361111,-123.96222222,CA,6.86333333333333,20.9266666666667,48.0,2.23333333333333,6.94266666666667,0.0
300201996,FRENCHY,Lightning,0.1,0,41.81833333,-123.98333333,CA,3.98,19.445,58.0,1.565,2.667,0.0
300201997,RANCH,Lightning,0.1,0,41.68611111,-123.92,CA,7.06,23.89,29.0,4.02,15.494,0.0
300201999,PATRICKS,Lightning,0.1,0,41.87194444,-123.84972222,CA,4.295,19.445,58.0,1.565,2.667,0.0
300202000,IDLEWILD,Lightning,0.1,0,41.90277778,-123.74972222,CA,7.155,23.89,25.0,2.68,755.396,0.0
300202001,SLANT,Miscellaneous,0.25,0,41.80583333,-124.05222222,CA,8.1875,8.065,79.25,2.975,2229.358,0.0
300202002,AMMON,Lightning,0.2,0,40.79694444,-123.62222222,CA,8.49,7.78333333333333,93.6666666666667,0.743333333333333,807.466,0.0
300202003,GROVES,Lightning,6797.8,1,40.95694444,-123.45333333,CA,6.93,16.115,66.5,0.0,895.604,0.0
300202004,ELK,Lightning,0.1,0,40.96638889,-123.46638889,CA,6.48,21.115,63.5,0.225,895.604,0.0
300202005,EAST,Lightning,1529.8,1,41.01416667,-123.46777778,CA,6.4,21.67,62.0,0.0,895.604,0.0
300202006,SALMON,Miscellaneous,0.2,0,41.37972222,-123.485,CA,0.82,2.22,95.0,1.34,942.34,0.0
300202007,MOTOR,Miscellaneous,0.29,0,40.41194444,-123.44833333,CA,7.28333333333333,7.04,97.0,0.0,871.050666666667,0.0
300202008,SLOAT,Lightning,0.1,0,39.85333333,-120.73138889,CA,6.3,7.61,83.0,1.67,588.772,0.0
300202010,NORTH FORK,Lightning,0.51,0,39.99055556,-120.27583333,CA,3.22,16.36,46.0,1.84,,0.0
300202011,ROSS 2,Lightning,0.2,0,39.995,-120.36277778,CA,5.465,15.14,42.5,0.715,459.232,0.0
300202012,JORDAN,Lightning,0.1,0,40.04833333,-120.29166667,CA,4.045,19.865,29.0,1.61,220.218,0.0
300202013,HORTON 2,Lightning,0.1,0,39.995,-120.39694444,CA,6.79666666666667,14.7733333333333,46.0,0.683333333333333,459.232,0.0
300202014,FOUR,Lightning,0.2,0,40.00472222,-120.37333333,CA,7.485,13.655,72.5,0.765,339.979,0.0
300202015,GREASE,Lightning,0.2,0,40.01555556,-120.36388889,CA,7.1975,15.475,59.75,1.13,110.363,0.0
300202016,ROBINSON,Lightning,0.1,0,39.97333333,-120.12888889,CA,7.855,8.66,98.0,1.005,190.246,0.0
300202017,PLINCO,Lightning,0.1,0,40.08388889,-120.29444444,CA,4.185,15.485,50.5,0.24,220.98,0.0
300202018,RACK,Lightning,0.1,0,40.03,-120.37722222,CA,6.72,15.785,41.5,0.375,339.979,0.0
300202019,BALD,Lightning,0.1,0,39.8675,-120.24222222,CA,5.01,4.44,,,,0.0
300202020,COVE,Lightning,0.25,0,39.90083333,-120.27,CA,9.4,17.94,48.0,1.59,,0.0
300202021,SPRINGS,Lightning,0.1,0,39.90444444,-120.17222222,CA,7.36333333333333,11.84,78.0,1.39,,0.0
300202022,DIXIE,Lightning,0.75,0,40.02638889,-120.35027778,CA,7.01,13.655,72.5,0.765,339.979,0.0
300202023,JACKSON,Equipment Use,0.5,0,39.85444444,-120.58833333,CA,5.26,11.93,,,591.312,27.2222222222222
300202024,TULE,Lightning,0.26,0,39.87638889,-120.21055556,CA,7.39666666666667,6.29333333333333,100.0,0.9,20.066,0.0
300202025,THOMPSON,Lightning,0.1,0,39.92305556,-120.85666667,CA,4.69666666666667,12.1666666666667,93.6666666666667,1.00666666666667,32.893,16.25
300202026,GANSNER,Lightning,0.1,0,39.94805556,-120.95111111,CA,4.47,11.0066666666667,91.6666666666667,0.45,7.747,16.25
300202027,THUNDER,Lightning,0.1,0,39.96,-120.88305556,CA,3.7566666666666704,10.7266666666667,87.3333333333333,0.393333333333333,0.762,16.0
300202028,TOLLGATE,Lightning,0.1,0,39.98111111,-120.89638889,CA,3.46666666666667,11.0066666666667,91.6666666666667,0.45,7.747,16.25
300202029,RICH,Lightning,0.25,0,39.99416667,-121.21972222,CA,5.47666666666667,16.785,74.0,0.0,1116.33,0.0
300202030,FALLS,Lightning,0.1,0,40.05111111,-120.94388889,CA,5.675,9.4,94.5,0.225,330.962,17.125
300202031,GUNNER,Miscellaneous,0.3,0,39.95722222,-121.03361111,CA,7.28666666666667,10.835,76.0,0.675,515.027333333333,17.25
300202032,EVANS,Equipment Use,0.1,0,40.17527778,-120.88333333,CA,7.8375,12.6975,47.0,1.79,465.455,0.0
300202033,RED,Lightning,0.3,0,40.28805556,-120.77305556,CA,7.00333333333333,15.8366666666667,62.0,1.13666666666667,21.971,0.0
300202034,SPLIT,Lightning,0.1,0,40.25916667,-120.80833333,CA,8.0375,15.1925,62.0,1.13666666666667,198.543333333333,0.0
300202035,TRIO,Lightning,0.1,0,40.26,-120.80888889,CA,8.03,15.1925,62.0,1.13666666666667,198.543333333333,0.0
300202036,BEAR,Lightning,0.1,0,40.26027778,-120.65555556,CA,6.5725,16.5075,62.3333333333333,1.04333333333333,275.844,0.0
300202037,DEANNES,Lightning,0.1,0,39.88888889,-121.01555556,CA,8.80666666666667,16.67,81.5,0.45,516.212666666667,16.5
300202038,SUPERIOR,Lightning,0.1,0,40.18833333,-120.79666667,CA,8.195,14.7025,72.0,1.565,311.023,0.0
300202039,POWERLINES,Miscellaneous,0.1,0,40.02861111,-120.96527778,CA,5.755,1.715,66.0,1.565,107.95,54.3333333333333
300202040,TRAIL,Campfire,0.1,0,39.92361111,-121.1325,CA,6.98,11.16,75.0,,71.374,0.0
300202041,EARLY,Lightning,0.1,0,40.22777778,-120.61361111,CA,5.83333333333333,18.67,51.5,0.895,296.799,0.0
300202042,LOWE,Lightning,0.1,0,40.255,-120.60944444,CA,6.185,21.165,50.19,0.8325,29.718,0.0
300202043,PAXTON,Arson,3.0,0,40.03638889,-121.00444444,CA,6.32,-0.9275,81.5,0.45,540.4485,31.5555555555556
300202044,WILLIAMS,Lightning,0.15,0,40.19138889,-120.94888889,CA,6.88,1.7325,77.0,0.895,532.976666666667,0.0
300202045,ROGERS,Railroad,0.1,0,39.97333333,-121.27305556,CA,5.22333333333333,8.665,68.5,0.0,1479.38066666667,0.0
300202046,DOME,Lightning,0.4,0,39.87611111,-121.33,CA,4.57666666666667,15.93,64.0,,1424.94,0.0
300202047,CUTLER,Lightning,0.1,0,39.90583333,-120.82666667,CA,6.5475,11.355,94.0,0.486666666666667,594.190666666667,19.25
300202048,SPRING GARDEN,Debris Burning,15.9,0,39.88527778,-120.80222222,CA,6.79666666666667,9.97666666666667,24.0,2.565,386.969,53.375
300202049,SPAN,Lightning,0.2,0,39.96361111,-121.09472222,CA,7.77333333333333,3.89,98.5,0.225,1299.29466666667,28.7142857142857
300202051,MILL,Lightning,0.1,0,40.15722222,-120.97388889,CA,3.16,12.375,,,633.095,0.0
300202052,GREENVILLE,Equipment Use,0.1,0,40.05305556,-120.93861111,CA,5.7025,9.965,49.0,0.67,599.1225,20.0
300202053,WHISKEY,Lightning,0.25,0,39.71222222,-121.19861111,CA,9.53,,,,1637.792,0.0
300202054,QUARTZ,Lightning,1.5,0,39.74694444,-121.21972222,CA,7.06,,,,1637.792,0.0
300202055,BLUE,Lightning,0.1,0,39.77638889,-120.81,CA,9.55,12.9,86.0,0.56,,0.0
300202056,HARTMAN,Lightning,0.1,0,39.71611111,-121.20583333,CA,9.08,,,,1639.824,0.0
300202057,VOLCANO,Lightning,3.5,0,39.84305556,-120.89972222,CA,7.915,8.445,81.0,0.505,657.098,19.1666666666667
300202058,FOWLER,Miscellaneous,0.01,0,39.76916667,-120.98861111,CA,6.3,,,,1574.546,0.0
300202059,C1-5,Lightning,0.3,0,39.79,-121.41972222,CA,7.6025,19.55,65.0,0.0,754.8245,0.0
300202060,MCCLELLAN,Lightning,0.1,0,40.05083333,-120.40333333,CA,6.2825,13.655,72.5,0.765,339.979,0.0
300202061,ROUND,Lightning,0.1,0,40.15,-120.48555556,CA,4.57,9.8,94.5,1.255,246.634,0.0
300202062,LONG,Lightning,0.35,0,39.86694444,-120.63833333,CA,3.47,11.98,,,588.772,22.0
300202063,LAKE 2,Campfire,0.02,0,39.6675,-120.6525,CA,6.89,16.11,,,1307.846,0.0
300202064,CARSON,Lightning,0.25,0,40.03638889,-120.17527778,CA,5.295,16.515,59.0,2.26,168.402,0.0
300202065,BROCKMAN,Lightning,1.9,0,40.19166667,-120.46777778,CA,7.10333333333333,14.6033333333333,71.3333333333333,0.853333333333333,220.726,0.0
300202066,GOLD,Lightning,0.1,0,39.66888889,-120.66222222,CA,7.0,13.33,,,1264.92,0.0
300202067,JAM,Lightning,0.25,0,40.12222222,-120.34944444,CA,5.06,16.7866666666667,37.0,0.5,220.726,0.0
300202068,CONES,Lightning,0.1,0,40.03527778,-120.19083333,CA,5.29,16.515,59.0,2.26,168.402,0.0
300202069,WILLOW,Lightning,1.25,0,40.07638889,-120.39194444,CA,6.08,13.655,72.5,0.765,339.979,0.0
300202070,BABCOCK,Lightning,0.1,0,40.07722222,-120.53972222,CA,5.575,17.0,63.0,0.605,74.422,0.0
300202071,ROSS 2A,Campfire,0.1,0,39.72666667,-120.74222222,CA,9.0,15.56,30.0,7.15,299.72,0.0
300202072,TWENTY,Lightning,0.1,0,40.0925,-120.42111111,CA,6.1275,15.645,61.5,0.365,339.979,0.0
300202073,LAVA,Lightning,0.2,0,39.87777778,-120.67916667,CA,5.53,8.945,79.0,0.56,588.772,0.0
300202074,CROSSING,Lightning,0.1,0,40.07083333,-120.45611111,CA,6.4825,13.655,72.5,0.765,339.979,0.0
300202075,ROCKER,Lightning,0.1,0,40.165,-120.40027778,CA,5.72666666666667,12.82,66.3333333333333,0.716666666666667,220.98,0.0
300202076,QUEEN,Lightning,0.1,0,40.04444444,-120.46305556,CA,6.8375,13.655,72.5,0.765,339.979,0.0
300202077,POISON,Lightning,0.1,0,40.0525,-120.41972222,CA,6.3,13.655,72.5,0.765,339.979,0.0
300202078,CREEK,Lightning,0.45,0,40.04472222,-120.44694444,CA,6.61,12.235,73.25,0.615,119.507,0.0
300202079,FORK,Lightning,0.1,0,40.19138889,-120.4775,CA,7.17333333333333,14.6033333333333,71.3333333333333,0.853333333333333,220.726,0.0
300202080,PINE,Lightning,0.1,0,40.12638889,-120.55638889,CA,7.25666666666667,15.46,53.5,2.0,557.53,0.0
300202081,CLARK,Lightning,0.1,0,40.2,-120.50444444,CA,7.27333333333333,14.6033333333333,66.6666666666667,0.853333333333333,568.452,0.0
300202082,CAMP,Lightning,0.25,0,40.02722222,-120.44027778,CA,6.41333333333333,8.68666666666667,88.3333333333333,0.913333333333333,158.623,0.0
300202083,FERRIS,Lightning,0.25,0,40.05944444,-120.54333333,CA,5.625,7.475,95.0,0.92,57.658,0.0
300202084,LITTLE BEAR,Miscellaneous,0.1,0,39.81,-120.65361111,CA,7.4,5.49,,,588.772,20.875
300202085,POOPOUT,Lightning,0.1,0,34.14138889,-116.85416667,CA,5.54666666666667,10.6666666666667,85.5,0.94,247.142,137.533333333333
300202086,SCALE,Miscellaneous,0.3,0,34.30972222,-117.47111111,CA,4.39,20.0,67.0,1.19,69.85,148.875
300202087,MIDDLE,Miscellaneous,0.1,0,34.24444444,-117.50555556,CA,3.5625,13.7033333333333,79.0,0.596666666666667,0.169333333333333,136.25
300202088,ROCK,Campfire,0.1,0,34.2475,-117.5125,CA,3.5325,12.96,87.0,0.15,0.169333333333333,112.25
300202089,STERLING,Miscellaneous,118.0,0,34.16666667,-117.23277778,CA,4.64,20.0,35.5,0.225,0.0,0.0
300202090,CUT 2,Miscellaneous,0.1,0,34.25027778,-117.43777778,CA,4.7725,20.74,63.0,1.78666666666667,52.451,148.875
300202091,THURMAN,Miscellaneous,0.25,0,34.10166667,-117.02638889,CA,4.435,19.285,43.515,0.895,123.698,161.466666666667
300202092,KILLCARE,Miscellaneous,0.1,0,34.10027778,-117.00833333,CA,5.525,11.195,60.0,1.34,267.843,85.5
300202093,MOTORCYCLE,Equipment Use,0.75,0,34.1325,-116.98361111,CA,5.61,11.2966666666667,71.0,0.9,226.06,96.25
300202094,BADGER,Miscellaneous,0.25,0,34.19944444,-117.30694444,CA,5.01,13.1466666666667,82.3333333333333,0.45,0.127,102.0
300202095,SLIDE,Lightning,0.1,0,34.19972222,-117.04055556,CA,7.805,15.1775,51.6666666666667,0.75,101.5365,85.5
300202096,SLOPE,Miscellaneous,1.0,0,34.23222222,-117.3725,CA,6.22,19.585,34.75,1.68,0.127,96.875
300202097,SAN GORGONIO,Miscellaneous,10.0,0,34.11666667,-116.79972222,CA,8.67333333333333,0.796666666666667,56.0,0.99,220.98,80.5
300202098,LANE,Equipment Use,0.1,0,34.33055556,-117.48194444,CA,4.78,15.56,75.0,0.3,233.849333333333,86.625
300202099,OIL,Debris Burning,0.1,0,34.36944444,-117.54722222,CA,6.198,17.94,41.0,1.94,246.126,71.0
300202100,BYPASS,Equipment Use,1.0,0,34.29666667,-117.455,CA,4.5625,17.5933333333333,56.3333333333333,0.893333333333333,237.574666666667,102.875
300202101,FOOTHILL,Miscellaneous,1.0,0,34.15416667,-117.23611111,CA,4.34666666666667,16.665,98.5,0.67,14.224,0.0
300202102,CREEK 1,Lightning,0.4,0,34.25027778,-117.53805556,CA,3.9275,19.4433333333333,48.3333333333333,0.893333333333333,34.29,118.733333333333
300202103,TEXAS,Miscellaneous,1.0,0,34.20722222,-117.45583333,CA,4.5025,23.1466666666667,42.6666666666667,0.596666666666667,26.7546666666667,142.0
300202104,TAURUS,Equipment Use,0.1,0,34.26916667,-117.44916667,CA,4.7925,15.0,82.0,1.19333333333333,34.4593333333333,133.533333333333
300202105,STERLING 2,Miscellaneous,0.25,0,34.16277778,-117.235,CA,5.04,7.61333333333333,100.0,0.47,78.74,0.0
300202106,HARRISON,Miscellaneous,0.25,0,34.13888889,-117.19055556,CA,4.965,15.0,83.0,0.0,14.224,0.0
300202107,HARDWOOD,Lightning,0.1,0,34.29944444,-117.63,CA,5.938,20.0,59.0,0.7825,194.733333333333,69.1333333333333
300202108,BREAK CHECK,Equipment Use,0.1,0,34.34972222,-117.44666667,CA,5.7,12.5933333333333,95.3333333333333,0.15,64.6006666666667,79.9333333333333
300202109,COLORADO,Equipment Use,0.1,0,34.31555556,-117.4775,CA,4.405,9.44333333333333,66.6666666666667,3.7266666666666706,64.1773333333333,41.066666666666706
300202110,BRYANT,Equipment Use,0.1,0,34.09527778,-117.03305556,CA,3.92,23.785,37.315,0.895,189.23,117.933333333333
300202111,PALM,Miscellaneous,0.1,0,34.20083333,-117.33277778,CA,5.724,0.0275000000000001,54.75,2.685,102.108,31.5
300202112,SCALES,Equipment Use,36.0,0,34.30638889,-117.46805556,CA,4.3925,17.04,75.0,1.64,34.29,118.266666666667
300202113,CONEX,Miscellaneous,0.1,0,34.23416667,-117.48333333,CA,3.7675,9.26333333333333,79.0,1.04333333333333,192.870666666667,80.25
300202114,LOOKOUT,Smoking,0.1,0,33.82416667,-116.75555556,CA,4.43,17.5966666666667,22.6666666666667,1.19,225.552,138.625
300202115,TORO,Miscellaneous,1.0,0,33.51694444,-116.41638889,CA,2.715,23.04,26.45,4.035,86.36,0.0
300202116,FAWNSKIN,Campfire,0.1,0,34.26972222,-116.95277778,CA,4.55,10.5,78.5,0.0,246.210666666667,126.933333333333
300202117,LOMAR,Miscellaneous,0.5,0,35.42138889,-118.33611111,CA,4.28666666666667,7.805,26.0,5.37,255.947333333333,0.0
300202118,PIUTE,Lightning,0.33,0,35.48833333,-118.38388889,CA,6.64,10.0,72.0,0.9,10.16,0.0
300202119,CLEAR,Lightning,0.25,0,35.49944444,-118.42833333,CA,7.86,20.56,38.0,3.13,42.418,0.0
300202120,BURTON,Lightning,0.25,0,35.49638889,-118.4175,CA,8.0,25.0,45.0,3.13,30.226,0.0
300202121,BITTER,Lightning,0.1,0,36.05555556,-118.1875,CA,5.25666666666667,6.67666666666667,64.0,0.45,329.607333333333,0.0
300202122,FISH,Campfire,20.0,0,35.08138889,-118.04611111,CA,6.9175,15.56,46.245,2.2125,,0.0
300202123,SPRINGHILL,Campfire,0.1,0,35.86222222,-118.44833333,CA,7.53,8.61,55.0,3.13,167.005,0.0
300202125,SPRING,Lightning,0.25,0,35.52888889,-118.42388889,CA,7.50333333333333,19.2533333333333,79.0,1.79,157.988,0.0
300202126,RIVER NOOK,Miscellaneous,0.05,0,35.76638889,-118.42972222,CA,4.83,23.5933333333333,40.0,2.53,172.466,0.0
300202127,RICHBAR,Miscellaneous,0.1,0,35.49055556,-118.89777778,CA,8.31333333333333,27.62,26.34,0.795,1.27,0.0
300202128,LIGHTNING,Miscellaneous,32.0,0,35.47972222,-118.75361111,CA,6.84,24.1466666666667,41.33333333333329,0.67,0.0,0.0
300202129,TROUT,Lightning,0.1,0,35.99527778,-118.29416667,CA,6.95,16.44,,,127.889,0.0
300202131,RODEO,Lightning,0.1,0,36.03944444,-118.19222222,CA,6.4575,13.575,100.0,0.0,216.916,0.0
300202132,MAYFLOWER,Lightning,0.17,0,34.36527778,-118.56666667,CA,4.202,23.5,33.8,1.622,3.048,58.0714285714286
300202133,JACKSONS,Lightning,0.7,0,35.42722222,-118.38722222,CA,6.22,6.11,93.0,2.23,76.708,0.0
300202134,CANNELL,Miscellaneous,0.25,0,35.07722222,-118.04305556,CA,6.75,5.22,45.525,1.2,,0.0
300202135,MAHOGANY,Lightning,0.1,0,36.03416667,-118.23444444,CA,4.29,12.4133333333333,86.0,0.45,253.576666666667,0.0
300202137,DARK,Lightning,0.25,0,36.00027778,-118.00416667,CA,7.165,13.77,46.0,1.79,87.122,12.375
300202139,POWER,Miscellaneous,0.1,0,35.46055556,-118.77166667,CA,7.59,18.1825,61.0,0.61,2.54,0.0
300202140,PINYON,Lightning,1.0,0,35.57277778,-118.26527778,CA,5.542,23.92,56.0,0.45,146.812,0.0
300202141,ROAD,Lightning,0.1,0,35.42555556,-118.38777778,CA,6.27,6.11,93.0,2.23,76.708,0.0
300202142,SUMMIT 2,Lightning,0.01,0,35.72527778,-118.5625,CA,6.30666666666667,14.8166666666667,51.0,1.34333333333333,133.985,0.0
300202143,COFFEE,Campfire,0.1,0,36.15444444,-118.74361111,CA,4.55,21.2966666666667,21.0,0.67,306.324,0.0
300202144,PASS,Miscellaneous,0.3,0,35.80138889,-118.58111111,CA,7.53333333333333,19.8166666666667,33.6666666666667,2.38333333333333,93.1333333333333,0.0
300202145,CASTLE,Lightning,0.25,0,36.17527778,-118.46333333,CA,7.80333333333333,10.5566666666667,54.0,0.9,41.7406666666667,0.0
300202147,NEEDLE ROCK,Lightning,0.1,0,36.11666667,-118.46944444,CA,6.07666666666667,5.0,100.0,0.45,43.18,0.0
300202148,GREY,Lightning,12.5,0,36.21027778,-118.50527778,CA,8.09,12.5,81.0,0.9,31.623,0.0
300202152,MCINTYRE,Lightning,0.1,0,36.16833333,-118.58472222,CA,6.07,10.555,95.5,0.9,36.83,0.0
300202153,WINDY,Lightning,0.1,0,36.76666667,-118.8175,CA,6.75333333333333,7.40666666666667,79.5,0.67,248.158,0.0
300202154,SIXTEEN,Lightning,0.25,0,35.93916667,-118.56638889,CA,5.95333333333333,6.48,51.6666666666667,0.746666666666667,270.002,0.0
300202155,CLICKS,Lightning,0.1,0,36.18555556,-118.54361111,CA,7.5675,14.0275,84.5,0.675,24.638,0.0
300202156,CABIN,Lightning,6960.0,1,36.23527778,-118.53555556,CA,7.87,8.89,,,60.452,0.0
300202157,STONEY,Lightning,0.1,0,36.75194444,-118.82055556,CA,6.38,-1.66333333333333,92.0,0.0,66.6326666666667,0.0
300202158,EVANS,Lightning,0.1,0,36.75138889,-118.81805556,CA,6.8175,12.9175,81.0,1.93666666666667,30.6705,0.0
300202159,MEADOW,Lightning,0.1,0,36.76638889,-118.83555556,CA,6.44333333333333,1.48333333333333,92.5,0.225,28.194,0.0
300202160,NORTH 2,Lightning,0.25,0,36.20333333,-118.64388889,CA,5.38333333333333,10.74,75.0,0.9,221.911333333333,0.0
300202161,GIANT,Lightning,0.1,0,36.20222222,-118.60972222,CA,6.96,14.165,83.5,0.9,28.194,0.0
300202162,DRY,Miscellaneous,0.5,0,36.01916667,-118.50111111,CA,5.28333333333333,7.40666666666667,100.0,0.45,40.8093333333333,0.0
300202163,BACON,Lightning,0.1,0,36.73305556,-118.93055556,CA,3.80666666666667,2.22333333333333,55.0,2.235,61.6373333333333,0.0
300202164,WHITTAKER,Debris Burning,0.1,0,36.68305556,-118.98305556,CA,5.535,7.36,53.0,1.64,46.99,0.0
300202165,LOWER,Miscellaneous,2.0,0,36.15222222,-118.73583333,CA,4.48666666666667,14.63,58.0,0.0,13.8006666666667,0.0
300202166,BIG,Campfire,0.1,0,36.71694444,-118.83361111,CA,6.54,2.41666666666667,68.0,0.0,69.088,0.0
300202167,BUCK,Lightning,0.12,0,36.73166667,-118.86194444,CA,5.00333333333333,1.67,80.0,2.235,61.5526666666667,0.0
300202168,LOGGERS,Lightning,2.0,0,36.70888889,-118.98305556,CA,5.59,16.2525,65.3333333333333,4.02333333333333,132.08,0.0
300202169,BAKER,Lightning,0.1,0,35.85166667,-118.53638889,CA,7.9825,10.0,67.5,0.3375,72.5805,0.0
300202170,TROUT 2,Lightning,0.25,0,36.21833333,-118.45194444,CA,8.46,11.67,,,59.182,0.0
300202172,CREST,Lightning,0.1,0,36.16833333,-118.66722222,CA,5.3475,15.695,33.0,0.9,16.637,0.0
300202173,JACOBSON,Lightning,0.1,0,36.20194444,-118.61388889,CA,6.9,15.695,33.0,0.9,16.637,0.0
300202175,MOWERY,Lightning,0.4,0,36.25277778,-118.60111111,CA,8.63333333333333,9.07333333333333,27.0,0.9,204.216,0.0
300202176,BELKNAP,Lightning,0.1,0,36.17666667,-118.60166667,CA,6.0925,14.86,50.0,1.12,29.5275,0.0
300202177,NELSON,Lightning,0.1,0,36.16888889,-118.60055556,CA,5.875,10.555,95.5,0.9,36.83,0.0
300202178,ROUND,Lightning,0.3,0,36.21222222,-118.44944444,CA,9.025,10.0,,,67.437,0.0
300202179,PAROLE,Lightning,0.1,0,36.21805556,-118.53527778,CA,8.21,13.61,70.0,0.45,35.687,0.0
300202180,ANGORA,Lightning,0.1,0,36.23805556,-118.43527778,CA,9.69,-6.11,,,,0.0
300202181,KRAMER,Miscellaneous,0.1,0,36.29444444,-118.78055556,CA,8.5175,15.8375,47.6666666666667,0.446666666666667,253.619,0.0
300202182,JENNIE,Lightning,0.1,0,36.68388889,-118.73444444,CA,5.14333333333333,13.5233333333333,90.5,1.34,38.354,0.0
300202183,JORDAN,Lightning,0.1,0,36.18527778,-118.58583333,CA,6.6275,15.695,33.0,0.9,16.637,0.0
300202184,MAGGIE,Lightning,0.25,0,36.25138889,-118.55083333,CA,9.445,15.0,30.0,0.9,189.992,0.0
300202185,ROCK,Miscellaneous,0.1,0,35.68333333,-118.43333333,CA,4.95,24.75,26.0,2.4575,134.874,0.0
300202186,GRAND,Lightning,0.1,0,36.81777778,-118.75027778,CA,7.11,0.835,100.0,0.0,176.149,0.0
300202187,CINDER,Lightning,0.1,0,41.38944444,-121.62027778,CA,8.58,7.22,89.0,1.34,172.974,0.0
300202188,DUNSMUIR,Campfire,1.0,0,41.11972222,-122.20694444,CA,6.51,12.7625,52.0,1.67,19.812,0.0
300202189,BEARTRAP,Lightning,0.5,0,41.11694444,-122.20333333,CA,6.61,17.69,95.0,0.0,1383.284,0.0
300202190,ELLERY,Lightning,0.5,0,40.94694444,-122.24861111,CA,7.772,22.726,54.0,0.28,1235.456,0.0
300202191,LAVA,Lightning,0.1,0,41.40888889,-121.52972222,CA,3.7,17.22,51.0,1.34,1.524,0.0
300202192,SHOTGUN,Lightning,0.1,0,41.07861111,-122.39361111,CA,3.686,11.554,78.0,1.34,1189.355,0.0
300202193,SODA,Miscellaneous,0.1,0,41.15138889,-122.31083333,CA,5.39,10.445,57.0,0.95,1186.34933333333,0.0
300202194,ZOT,Lightning,0.1,0,41.27361111,-121.96638889,CA,4.095,0.835,97.0,0.0,1283.589,0.0
300202195,FLAT,Campfire,0.1,0,41.06944444,-122.3575,CA,3.84,15.352,73.0,0.9,1304.4424,0.0
300202196,GREY,Lightning,0.1,0,41.1225,-122.44111111,CA,5.646,14.444,89.0,1.34,1195.8955,0.0
300202197,BALD,Lightning,0.25,0,41.12138889,-122.12972222,CA,5.76,20.16,,,1376.08733333333,0.0
300202198,MORGAN,Lightning,0.1,0,41.29555556,-122.40805556,CA,4.445,14.0275,88.8125,0.2675,1030.732,0.0
300202199,MAPLE,Lightning,0.25,0,40.8975,-122.47666667,CA,5.508,17.526,90.6666666666667,1.28,1020.40266666667,0.0
300202200,SINK,Lightning,0.1,0,41.31638889,-121.95138889,CA,3.13,16.67,93.0,0.9,3.302,0.0
300202201,SPRING,Lightning,0.2,0,41.41166667,-122.52666667,CA,6.42,17.86,79.5333333333333,1.02333333333333,11.938,0.0
300202202,SPORK,Lightning,0.1,0,41.13361111,-122.40027778,CA,6.12,22.444,58.0,1.34,1068.578,0.0
300202203,BELNAP,Lightning,0.1,0,41.28305556,-121.83472222,CA,8.585,15.835,93.0,0.9,804.799,0.0
300202204,STILLWATER,Lightning,0.1,0,41.31638889,-121.79972222,CA,9.78,8.89,93.0,0.45,6.858,0.0
300202205,GUMBOOT,Lightning,0.1,0,41.20805556,-122.50611111,CA,6.55,13.575,62.07,1.1,,0.0
300202206,PORCUPINE,Campfire,0.1,0,41.27388889,-122.50722222,CA,5.88,8.495,90.35,0.88,,0.0
300202207,CRANE,Lightning,0.1,0,40.965,-122.3625,CA,5.04,15.58,86.0,1.35666666666667,976.037333333333,0.0
300202208,TUNA,Lightning,0.1,0,40.98,-122.29694444,CA,6.746,22.634,56.0,0.81,936.244,0.0
300202211,CORNER,Lightning,0.1,0,40.28888889,-121.87111111,CA,8.1,20.63,18.0,2.23,300.736,0.0
300202213,EDDY,Lightning,0.1,0,41.39972222,-122.46722222,CA,5.224,16.192,31.3975,1.5925,41.91,0.0
300202214,DOME,Smoking,0.1,0,41.16527778,-122.37333333,CA,6.932,17.444,33.0,1.31,957.326,0.0
300202215,MEMORIAL,Campfire,0.1,0,41.35694444,-122.30472222,CA,3.4275,6.0125,58.1233333333333,1.11,38.354,0.0
300202216,NEY,Campfire,0.1,0,41.24333333,-122.38305556,CA,6.205,9.715,51.035,0.52,44.704,0.0
300202217,BUNNY,Campfire,0.1,0,41.35638889,-122.23666667,CA,4.47,4.1725,94.0433333333333,0.633333333333333,44.704,0.0
300202218,SKI,Campfire,0.1,0,41.35638889,-122.19888889,CA,4.63,7.68,78.835,1.44,44.704,0.0
300202219,RED,Campfire,0.1,0,41.33972222,-122.25111111,CA,3.96,12.76,56.4933333333333,0.336666666666667,36.83,0.0
300202220,SAND,Miscellaneous,0.1,0,41.35972222,-122.24638889,CA,4.34,11.5225,69.09,0.763333333333333,36.83,0.0
300202221,BRADLEY,Lightning,0.25,0,41.23611111,-122.32166667,CA,5.255,16.2475,75.2266666666667,0.393333333333333,892.302,0.0
300202222,TWIN,Campfire,0.1,0,41.28083333,-122.38666667,CA,4.6175,8.3225,63.5525,1.7375,45.72,0.0
300202223,GREEN,Campfire,0.1,0,41.36138889,-122.20083333,CA,4.64666666666667,17.4833333333333,53.88,0.67,36.83,0.0
300202224,OBSIDIAN,Lightning,0.1,0,41.0,-121.0,CA,8.08,15.56,,,59.944,0.0
300202225,ALPINE,Lightning,0.1,0,41.37277778,-122.22666667,CA,5.14,12.93,94.2166666666666,0.0,36.576,0.0
300202226,MILITARY,Campfire,52.5,0,41.49527778,-122.14027778,CA,6.565,12.225,46.0,1.565,28.448,0.0
300202227,BLUEJAY,Lightning,4.5,0,40.85472222,-122.05055556,CA,8.79,17.55,,,1343.152,0.0
300202228,DIVIDE,Lightning,0.1,0,40.66777778,-123.18555556,CA,6.85666666666667,16.11,57.5,0.225,311.234666666667,0.0
300202229,NOSONI,Lightning,3.6,0,40.95861111,-122.16694444,CA,5.93,16.02,,,1244.6,0.0
300202230,BUDDAH,Campfire,0.2,0,40.73194444,-123.0625,CA,7.1825,15.2875,70.0,0.74,21.082,0.0
300202231,PIT,Lightning,0.1,0,40.74944444,-122.16777778,CA,4.93,12.52,,,920.496,0.0
300202232,SUGAR,Lightning,0.1,0,40.8975,-122.45888889,CA,4.84,14.91,86.3333333333333,2.30333333333333,1020.74133333333,0.0
300202233,CREEK,Campfire,0.1,0,40.84305556,-122.36027778,CA,4.932,7.252,85.3333333333333,2.06333333333333,919.988,0.0
300202234,CARRVILLE,Campfire,0.1,0,41.07138889,-122.695,CA,3.808,12.884,61.6666666666667,0.596666666666667,455.676,0.0
300202235,FLUME,Lightning,0.1,0,41.11722222,-122.39972222,CA,5.446,20.998,58.0,1.34,959.866,0.0
300202236,CABIN,Lightning,0.1,0,41.13611111,-122.15416667,CA,6.18,7.75,72.0,0.0,929.978666666667,0.0
300202237,HITCHCOCK,Lightning,0.1,0,40.61333333,-123.35083333,CA,7.725,19.72,22.0,0.0,872.617,0.0
300202238,STONE,Debris Burning,1.0,0,40.85666667,-122.84416667,CA,6.8875,4.545,85.5,0.225,1267.37533333333,0.0
300202239,YORK,Lightning,316.0,1,40.77888889,-123.43666667,CA,7.08,19.445,30.0,0.45,438.531,0.0
300202240,HIDDEN,Lightning,11.0,0,40.77694444,-123.48777778,CA,3.86,20.56,30.0,0.45,9.398,0.0
300202241,WAT,Lightning,0.1,0,40.88527778,-123.45277778,CA,7.63,16.115,66.5,0.0,895.604,0.0
300202242,SMOKEY,Lightning,1.0,0,40.83166667,-123.43388889,CA,8.945,18.615,50.5,0.225,452.501,0.0
300202243,LOOK,Lightning,0.93,0,40.83166667,-123.43305556,CA,8.97,18.615,50.5,0.225,452.501,0.0
300202244,OLSON,Lightning,37.0,0,40.72666667,-123.42361111,CA,6.80333333333333,19.0733333333333,36.5,0.45,299.466,0.0
300202245,CLARK,Lightning,0.74,0,40.70722222,-123.41638889,CA,6.8,19.0733333333333,36.5,0.45,299.466,0.0
300202246,ROAD,Lightning,378.68,1,40.92166667,-123.46305556,CA,6.325,16.115,66.5,0.0,895.604,0.0
300202247,HALSEY,Lightning,7.22,0,40.82416667,-123.44611111,CA,8.62,18.615,50.5,0.225,452.501,0.0
300202248,ZEIGLER,Lightning,0.1,0,40.82833333,-123.44305556,CA,8.705,21.945,51.5,0.225,453.517,0.0
300202249,WILLIAMS,Debris Burning,2.97,0,40.41972222,-122.965,CA,7.76333333333333,8.68333333333333,27.5,1.79,701.548,0.0
300202250,STUART,Lightning,0.25,0,40.22333333,-123.0,CA,8.50666666666667,16.3633333333333,79.0,0.0,732.197333333333,0.0
300202251,MURPHY,Lightning,0.24,0,40.29138889,-123.2075,CA,7.83666666666667,14.2566666666667,68.5,0.0,1099.39666666667,0.0
300202252,WOOD,Lightning,8.0,0,40.70388889,-123.4825,CA,1.41,19.44,54.0,0.45,420.37,0.0
300202253,SOUTH,Lightning,0.1,0,40.29333333,-123.2925,CA,3.855,15.835,85.0,0.0,1189.228,0.0
300202254,BENNETT,Equipment Use,1.9,0,40.65611111,-123.54916667,CA,5.3,11.11,62.0,0.45,420.878,0.0
300202255,GAP,Lightning,0.75,0,40.25222222,-122.96083333,CA,6.44,16.3633333333333,79.0,0.0,732.197333333333,0.0
300202256,BARKER,Lightning,0.25,0,40.67083333,-123.13472222,CA,8.628,16.244,81.3333333333333,0.186666666666667,739.648,0.0
300202257,OPIUM1,Lightning,0.25,0,40.14055556,-122.95805556,CA,8.5,22.78,,,605.028,0.0
300202258,PONY,Lightning,0.1,0,40.25138889,-123.04527778,CA,8.37333333333333,23.3733333333333,21.5,0.0,758.020666666667,0.0
300202259,DARK,Lightning,1.4,0,40.205,-122.98222222,CA,9.09666666666667,18.0066666666667,38.0,0.0,634.407333333333,0.0
300202260,WILCOX,Lightning,0.1,0,40.25333333,-123.17666667,CA,7.9,15.0,83.0,0.0,498.094,0.0
300202261,RATTLESNAKE,Lightning,0.23,0,40.38305556,-123.23277778,CA,9.14,14.44,85.0,0.0,1101.598,0.0
300202262,COPPER,Lightning,0.25,0,40.4475,-123.30194444,CA,4.56,15.0,74.0,0.0,877.57,0.0
300202263,VALLEY,Lightning,0.2,0,40.53888889,-123.29944444,CA,5.17,15.0,80.5,0.0,461.01,0.0
300202264,RASPBERRY,Lightning,21.6,0,40.21027778,-123.11,CA,9.09,20.56,24.0,0.0,975.868,0.0
300202265,PROSPECT,Lightning,20.25,0,40.27555556,-123.11611111,CA,5.04,20.56,24.0,0.0,975.868,0.0
300202266,STRING,Lightning,0.25,0,40.38305556,-123.0875,CA,3.36,14.44,85.0,0.0,968.756,0.0
300202267,NORTH 1,Lightning,0.25,0,40.19277778,-122.93861111,CA,7.95666666666667,24.2966666666667,19.0,0.0,634.407333333333,0.0
300202268,CHOW,Lightning,0.85,0,40.28888889,-123.08361111,CA,3.49,20.56,24.0,0.0,975.868,0.0
300202269,FOSS,Lightning,0.4,0,40.28611111,-123.13833333,CA,7.545,15.835,42.0,0.0,498.094,0.0
300202270,OPIUM 2,Lightning,0.25,0,40.14027778,-122.95444444,CA,8.32,23.33,,,605.028,0.0
300202271,GATES,Lightning,0.1,0,40.66666667,-123.35,CA,6.97,19.0733333333333,36.5,0.45,299.466,0.0
300202272,CHICAGO,Lightning,0.5,0,40.14888889,-122.96638889,CA,8.83,23.33,,,605.028,0.0
300202273,FISHER,Lightning,0.1,0,40.13527778,-122.98333333,CA,9.88,23.33,,,605.028,0.0
300202274,RATTRAP,Lightning,0.1,0,40.18333333,-122.95,CA,8.67333333333333,24.2966666666667,19.0,0.0,634.407333333333,0.0
300202275,BEEGUM,Lightning,0.1,0,40.19388889,-122.95611111,CA,8.49,24.2966666666667,19.0,0.0,634.407333333333,0.0
300202276,TELEPHONE,Lightning,55.0,0,40.42333333,-123.13694444,CA,7.9,16.115,48.0,0.0,510.286,0.0
300202277,SWIFT,Lightning,0.1,0,40.38416667,-123.39583333,CA,7.56333333333333,16.48,39.5,0.0,705.527333333333,0.0
300202278,CEDAR,Lightning,0.01,0,40.38722222,-123.17333333,CA,6.63,20.56,24.0,0.0,975.868,0.0
300202279,SADDLE,Lightning,1543.0,1,40.69361111,-123.53416667,CA,2.77,19.44,54.0,0.45,420.37,0.0
300202280,BEAR,Lightning,0.5,0,40.96666667,-123.16694444,CA,5.5,22.22,40.0,3.13,1084.072,0.0
300202281,RIDGE,Lightning,0.3,0,40.75833333,-123.11805556,CA,8.346,16.168,59.25,0.405,863.4095,0.0
300202282,THUMB,Lightning,0.75,0,41.01777778,-122.81611111,CA,5.06,12.634,84.0,0.0,656.082,0.0
300202283,WHEEL,Miscellaneous,0.1,0,40.73333333,-123.20027778,CA,3.555,17.78,65.0,0.45,785.114,0.0
300202284,BACKBONE,Lightning,0.1,0,40.85305556,-123.15638889,CA,5.84,20.0,64.0,2.235,907.161,0.0
300202285,YELLOW,Lightning,0.2,0,40.90555556,-123.08611111,CA,3.15,16.67,72.0,1.34,1084.072,0.0
300202287,HOBO,Lightning,4.3,0,40.92,-123.16722222,CA,2.48,22.22,40.0,3.13,1084.072,0.0
300202288,DUTCH,Lightning,0.1,0,40.6525,-123.00972222,CA,5.65,8.07,87.5,0.0,794.512,0.0
300202290,BALL,Lightning,0.1,0,40.66416667,-123.20611111,CA,6.52,13.3366666666667,79.5,0.0,739.648,0.0
300202292,UNDER,Lightning,1.0,0,40.72833333,-123.48055556,CA,0.95,17.78,74.0,0.0,420.878,0.0
300202293,PACKERS,Lightning,0.2,0,41.08888889,-122.96611111,CA,3.715,12.5,,,530.352,0.0
300202294,COYOTE,Lightning,0.2,0,41.10555556,-122.96777778,CA,4.53,13.61,,,531.876,0.0
300202295,BALLY,Lightning,0.25,0,40.67388889,-123.21166667,CA,6.29666666666667,18.5166666666667,77.0,0.225,281.94,0.0
300202296,CROSBY,Lightning,0.1,0,41.10333333,-122.96777778,CA,4.415,13.61,,,531.876,0.0
300202297,ADAM,Lightning,0.1,0,41.1,-122.96194444,CA,4.04,14.44,,,533.4,0.0
300202298,MUNGER,Lightning,0.5,0,40.78083333,-122.97555556,CA,6.85,18.396,60.3333333333333,0.3,0.127,0.0
300202299,EAGLE,Lightning,6.5,0,41.19361111,-122.78972222,CA,7.54,18.4725,72.6666666666667,0.743333333333333,442.976,0.0
300202300,HATCHET,Lightning,0.13,0,41.0175,-122.69444444,CA,4.786,15.1,94.6666666666667,0.0,848.868,0.0
300202301,LOGAN,Lightning,0.1,0,40.76805556,-123.17222222,CA,7.3575,14.935,92.0,1.28666666666667,290.660666666667,0.0
300202302,GULCH,Lightning,0.1,0,40.76861111,-123.17111111,CA,7.3675,14.935,92.0,1.28666666666667,290.660666666667,0.0
300202303,MANZANITA,Lightning,0.1,0,40.75555556,-123.19944444,CA,5.86666666666667,14.8133333333333,93.0,1.79,290.660666666667,0.0
300202304,FRENCH,Lightning,0.1,0,40.79611111,-123.28388889,CA,6.47333333333333,14.26,77.5,0.45,304.715333333333,0.0
300202305,HICKORY,Lightning,0.1,0,40.12388889,-122.88416667,CA,5.31,18.33,,,604.774,0.0
300202306,STODDARD,Campfire,0.1,0,41.15055556,-122.75361111,CA,5.746,15.396,77.5,0.0,680.0215,0.0
300202307,ROWDY,Equipment Use,0.25,0,40.79638889,-123.39555556,CA,7.99,15.0,69.5,0.45,300.651333333333,0.0
300202308,MCDONALD,Campfire,0.1,0,41.15055556,-122.75138889,CA,5.722,8.252,53.0,1.12,15.3035,0.0
300202309,HELENA,Campfire,0.1,0,40.78416667,-123.12972222,CA,7.8425,16.8,45.6666666666667,1.24333333333333,305.223333333333,0.0
300202310,ONION,Lightning,0.5,0,40.95388889,-123.45166667,CA,6.97,16.115,66.5,0.0,895.604,0.0
300202311,BOX,Equipment Use,0.1,0,40.80638889,-123.47111111,CA,6.01,10.0,88.0,0.45,47.244,0.0
300202312,BOWERMAN,Debris Burning,0.1,0,40.90583333,-122.76555556,CA,6.546,1.482,74.5,0.45,45.4025,0.0
300202313,TRASH,Debris Burning,0.1,0,40.75666667,-123.11027778,CA,8.364,0.494,87.25,0.485,74.9935,0.0
300202314,WHITNEY,Lightning,0.1,0,40.81527778,-122.7925,CA,5.615,14.345,100.0,0.0,769.704666666667,0.0
300202315,CAPTAIN,Lightning,2.7,0,40.87444444,-122.74555556,CA,6.924,17.134,65.5,0.45,586.74,0.0
300202316,GRANITE,Lightning,0.5,0,40.89777778,-122.85722222,CA,6.8525,15.4875,62.0,0.9,339.09,0.0
300202317,OREGON,Lightning,1.3,0,40.75472222,-122.98944444,CA,5.4425,17.4825,62.6666666666667,0.3,34.798,0.0
300202318,MONUMENT,Lightning,1.5,0,40.84444444,-122.99388889,CA,7.57333333333333,17.3633333333333,65.6666666666667,0.0,24.638,0.0
300202319,CRUMPY,Lightning,0.5,0,40.92611111,-123.09888889,CA,3.42,16.67,71.0,0.0,28.448,0.0
300202320,CAMP,Lightning,0.1,0,41.11138889,-121.90583333,CA,7.10333333333333,14.26,85.0,0.0,714.332666666667,0.0
300202321,SATIN,Lightning,0.15,0,40.005,-122.13416667,CA,4.94,19.44,73.0,1.79,0.0,0.0
300202324,HUNTINGTON,Lightning,0.1,0,37.24638889,-119.205,CA,6.224,4.222,72.0,3.355,358.902,0.0
300202325,SUGAR,Lightning,0.3,0,37.13333333,-119.38361111,CA,6.552,21.444,56.5,0.67,153.6192,0.0
300202326,BEAR,Lightning,0.1,0,37.45,-119.11666667,CA,8.51333333333333,14.8166666666667,52.0,2.68,263.398,0.0
300202327,PRYOR,Lightning,0.1,0,37.31666667,-119.18333333,CA,5.78,13.3325,80.5,3.58,217.2335,0.0
300202328,TOM,Lightning,0.1,0,37.36666667,-119.20027778,CA,7.0,14.11,77.0,3.58,244.1956,0.0
300202329,TABLE,Lightning,0.1,0,37.33333333,-119.03333333,CA,5.6275,11.115,69.0,2.01,282.956,0.0
300202330,MIRROR,Lightning,0.1,0,37.21666667,-119.11694444,CA,6.31,4.165,82.0,1.79,381.4445,0.0
300202331,KIASER,Lightning,0.1,0,37.26666667,-119.23361111,CA,6.96,4.222,72.0,3.355,358.902,0.0
300202332,ONION,Lightning,0.1,0,37.38333333,-119.06666667,CA,6.59,4.305,78.5,3.355,266.7,0.0
300202333,POTTER,Lightning,0.1,0,37.28361111,-119.13333333,CA,5.916,5.446,73.5,5.14,348.1832,0.0
300202334,DUCK,Lightning,0.05,0,37.00027778,-118.90055556,CA,6.58,11.5,,,72.644,0.0
300202335,BUCK,Lightning,0.01,0,37.00138889,-119.05,CA,6.315,18.79,79.5,1.345,3.937,0.0
300202336,DINKEY,Miscellaneous,0.16,0,37.05083333,-119.15055556,CA,6.075,11.25,68.6666666666667,1.04333333333333,385.0005,0.0
300202337,FRESNO,Miscellaneous,0.1,0,37.06694444,-119.15,CA,5.7275,11.25,50.6666666666667,0.893333333333333,391.033,0.0
300202338,MULEY,Lightning,3.05,0,37.00138889,-119.13361111,CA,5.84,18.79,79.5,1.345,3.937,0.0
300202339,BULL,Lightning,0.15,0,36.98361111,-119.08333333,CA,5.8,14.3475,81.5,0.45,29.21,0.0
300202340,RANCH,Lightning,0.02,0,36.91666667,-118.98416667,CA,6.015,19.525,,,3.937,0.0
300202341,STRAWBERRY,Lightning,0.25,0,37.01833333,-119.13444444,CA,6.09,18.79,79.5,1.345,3.937,0.0
300202342,ROSS,Lightning,0.1,0,36.99777778,-119.11638889,CA,5.75,14.3475,81.5,0.45,29.21,0.0
300202343,MEADOW,Lightning,0.1,0,36.9725,-119.16138889,CA,5.6425,16.75,85.0,0.3,27.7495,0.0
300202344,GRAND,Lightning,0.02,0,37.05083333,-119.21777778,CA,6.59,18.11,73.25,1.6775,76.4032,0.0
300202345,CABIN,Lightning,0.01,0,36.98333333,-119.08444444,CA,5.79,14.3475,81.5,0.45,29.21,0.0
300202346,DOG,Lightning,0.1,0,37.15166667,-119.00055556,CA,4.06,2.78,,,,0.0
300202347,DEER,Lightning,0.24,0,36.99611111,-119.09972222,CA,5.7725,15.71,62.0,1.12,34.798,0.0
300202348,SOAPROOT FLAT,Debris Burning,0.1,0,37.01916667,-119.25194444,CA,7.038,5.112,43.0,0.986,159.512,0.0
300202349,POISON,Campfire,0.9,0,37.15166667,-119.00055556,CA,4.06,3.33,,,,0.0
300202350,LOOKOUT,Lightning,0.5,0,36.96361111,-119.18305556,CA,5.46,16.75,85.0,0.3,27.7495,0.0
300202351,POLLARD,Lightning,0.1,0,37.06805556,-119.23333333,CA,6.368,18.11,73.25,1.6775,76.4032,0.0
300202352,PROVIDENCE,Debris Burning,0.01,0,37.05027778,-119.20111111,CA,6.624,13.668,37.25,0.45,408.0764,0.0
300202353,SHORT,Lightning,0.25,0,37.03416667,-119.03333333,CA,6.55333333333333,15.61,72.0,0.0,40.894,0.0
300202354,WOODCHUCK,Lightning,1.0,0,36.98527778,-118.91916667,CA,6.92,9.0,,,72.644,0.0
300202355,PROVIDENCE 2,Lightning,0.2,0,37.03583333,-119.20222222,CA,6.3,17.0825,79.3333333333333,1.79,95.377,0.0
300202356,GARLIC,Lightning,0.25,0,36.90027778,-118.96805556,CA,7.055,20.61,,,0.0,0.0
300202357,PATTERSON,Lightning,0.1,0,36.93805556,-119.08305556,CA,6.1025,16.7075,59.5,0.45,34.798,0.0
300202358,ROCK,Lightning,0.1,0,36.90027778,-118.98333333,CA,6.61,20.61,,,0.0,0.0
300202359,LINE,Lightning,0.1,0,37.26777778,-119.20055556,CA,6.618,5.556,93.0,0.895,259.08,0.0
300202360,HENDRICK,Lightning,0.1,0,37.41722222,-119.06694444,CA,7.92,12.36,80.5,3.58,132.9055,0.0
300202361,CREEK,Lightning,0.1,0,37.38361111,-119.06805556,CA,6.6,11.115,69.0,2.01,282.956,0.0
300202362,WELDONS,Lightning,0.1,0,37.23416667,-119.06694444,CA,7.142,4.89,87.0,1.34,382.27,0.0
300202363,COUNTY,Lightning,0.1,0,38.39277778,-119.93472222,CA,7.38666666666667,7.22333333333333,80.0,0.0,846.328,0.0
300202364,CHAIN,Lightning,0.1,0,38.15333333,-119.89805556,CA,6.84,10.3325,99.0,,449.199,0.0
300202365,BUFFALO,Miscellaneous,0.01,0,38.06638889,-120.02833333,CA,9.03,12.395,71.0,,33.528,0.0
300202366,SWORD,Campfire,0.01,0,38.40611111,-119.93388889,CA,7.57,13.444,35.0,0.0,878.967,0.0
300202367,CHARCOAL,Campfire,0.01,0,38.29805556,-119.86027778,CA,7.64333333333333,13.7166666666667,65.0,,451.612,0.0
300202368,RESERVOIR,Lightning,20.0,0,38.33388889,-119.93222222,CA,8.445,12.7725,55.0,0.0,582.083333333333,0.0
300202369,SIX,Lightning,0.1,0,38.3225,-119.93694444,CA,8.665,15.61,59.0,,425.196,0.0
300202370,WATERHOUSE,Lightning,0.01,0,38.20361111,-119.94277778,CA,4.8,1.85,98.0,0.0,62.357,0.0
300202371,BARN,Lightning,1.5,0,38.33027778,-119.84916667,CA,8.4,13.33,,,849.376,0.0
300202372,STUMP,Miscellaneous,0.01,0,38.31277778,-119.79472222,CA,7.39666666666667,10.7433333333333,,2.23,435.356,0.0
300202373,MCCORMICK,Lightning,2.5,0,38.3775,-119.90638889,CA,9.02333333333333,11.48,79.0,0.0,822.452,0.0
300202374,MILL,Lightning,0.1,0,38.31027778,-119.92972222,CA,7.87,8.235,95.0,,436.499,0.0
300202375,LELAND,Campfire,0.01,0,38.22527778,-119.98833333,CA,3.56,11.015,74.0,,37.719,0.0
300202376,LEWIS,Lightning,0.01,0,38.23472222,-119.72,CA,6.154,4.104,,0.9,472.270666666667,0.0
300202377,RUSH,Equipment Use,0.1,0,37.80222222,-119.87722222,CA,4.28,13.05,65.5,2.23,6.35,0.0
300202378,GOOSEBERRY,Lightning,0.1,0,38.19166667,-119.97055556,CA,4.94666666666667,2.41,,0.0,584.454,0.0
300202379,OAK,Lightning,0.1,0,37.81111111,-119.87222222,CA,4.555,14.395,84.5,0.45,26.162,0.0
300202380,HAWK,Lightning,0.01,0,38.32222222,-119.82527778,CA,8.28666666666667,7.03666666666667,,0.45,481.584,0.0
300202381,NIAGARA,Lightning,0.01,0,38.33638889,-119.93277778,CA,9.58,5.62,98.0,,564.726666666667,0.0
300202382,TWO MILE,Debris Burning,5.0,0,38.06277778,-120.06305556,CA,8.99,5.56,57.0,1.79,583.692,0.0
300202383,DRY,Miscellaneous,0.25,0,38.10583333,-120.23361111,CA,7.1375,18.7975,37.0,4.02,308.864,0.0
300202384,FINNING,Miscellaneous,0.1,0,39.09944444,-120.78111111,CA,5.9,15.2833333333333,79.5,0.0,580.517,66.25
300202385,MILL,Miscellaneous,0.1,0,39.09888889,-120.78083333,CA,5.93333333333333,11.8566666666667,72.5,0.45,580.517,47.0
300202386,VALLEY,Lightning,1.0,0,39.16333333,-120.30194444,CA,3.765,7.7,,1.65,1007.11,37.1111111111111
300202387,CHICKENHAWK,Campfire,0.1,0,39.0975,-120.70694444,CA,5.42666666666667,13.1566666666667,77.0,0.0,1051.306,0.0
300202388,BLACK,Lightning,0.1,0,39.17388889,-120.61666667,CA,7.575,19.805,33.41,2.56,705.950666666667,0.0
300202389,BAR,Lightning,0.22,0,39.19416667,-120.68527778,CA,5.9525,18.635,30.82,1.54,778.933333333333,0.0
300202390,ITALIAN,Lightning,0.1,0,39.19305556,-120.70416667,CA,5.395,18.885,39.91,0.995,1168.4,0.0
300202391,HELESTER,Lightning,0.25,0,39.20611111,-120.70333333,CA,5.215,18.635,30.82,1.54,778.933333333333,0.0
300202392,FOURTY THREE,Lightning,0.1,0,39.13027778,-120.52138889,CA,4.99,18.1466666666667,48.0,1.12,318.600666666667,0.0
300202393,DUNCAN,Lightning,3.0,0,39.12527778,-120.48361111,CA,5.19333333333333,19.26,35.5,2.24,316.653333333333,0.0
300202394,FINNING,Miscellaneous,1.0,0,39.10833333,-120.78055556,CA,5.40666666666667,16.3066666666667,58.5,0.0,580.517,68.6
300202395,RED,Lightning,0.1,0,39.14416667,-120.45888889,CA,4.13,19.725,35.5,2.24,4.064,0.0
300202396,HUMBUG,Lightning,0.1,0,39.1725,-120.67194444,CA,6.82,18.885,30.82,1.54,1092.87733333333,0.0
300202397,CORRAL,Lightning,0.14,0,39.16722222,-120.65388889,CA,7.1475,18.885,30.82,1.54,1092.87733333333,0.0
300202398,SUGAR,Campfire,0.1,0,39.13138889,-120.79888889,CA,4.42666666666667,11.6233333333333,92.5,0.67,1055.116,47.0625
300202399,SECRET,Lightning,0.1,0,39.17638889,-120.58638889,CA,7.41,7.75,58.89,6.465,825.415333333334,0.0
300202400,SNOWFLOWER,Miscellaneous,0.1,0,39.30944444,-120.59222222,CA,6.4625,17.195,22.88,3.09,1274.826,0.0
300202401,RESORT,Arson,0.1,0,39.31333333,-120.58583333,CA,6.5275,9.0,87.48,6.69,1275.207,0.0
300202402,RESORT 2,Arson,0.1,0,39.31361111,-120.59666667,CA,6.465,9.0,87.48,6.69,1275.207,0.0
300202403,ALPHA,Lightning,0.1,0,39.31777778,-120.80833333,CA,3.97,11.448,94.145,1.955,40.767,0.0
300202404,SERENA,Lightning,0.5,0,39.26638889,-120.385,CA,3.714,2.012,83.3333333333333,1.05,842.01,0.0
300202405,WARD,Lightning,0.1,0,39.13416667,-120.24777778,CA,2.54,8.01333333333333,,3.66,990.6,39.7777777777778
300202406,ERIE,Lightning,3.5,0,39.37611111,-120.76583333,CA,6.7775,21.85,29.91,0.995,17.6106666666667,0.0
300202407,ANDERSON,Lightning,0.1,0,39.27222222,-120.29583333,CA,4.268,11.06,77.0,1.1325,764.667,53.8888888888889
300202408,FLORISTON,Lightning,0.25,0,39.39333333,-120.04361111,CA,5.11,-0.635,93.0,0.45,356.743,53.7777777777778
300202409,STAMPEDE,Campfire,0.4,0,39.48222222,-120.16638889,CA,4.65666666666667,2.415,95.0,0.0,399.457333333333,52.0
300202410,POWERHOUSE,Lightning,0.1,0,39.29527778,-120.82916667,CA,3.908,19.382,44.3433333333333,0.0,20.4893333333333,0.0
300202411,HOG,Lightning,0.1,0,39.60916667,-120.71527778,CA,6.54,16.6666666666667,51.0,4.47,897.212666666667,0.0
300202412,BOWMAN,Lightning,0.1,0,39.44166667,-120.63333333,CA,5.61,14.725,,,1231.773,0.0
300202413,GASTON,Lightning,0.1,0,39.37,-120.75416667,CA,6.57666666666667,11.3066666666667,79.825,1.44,613.918,0.0
300202414,RUCKER,Lightning,0.1,0,39.36388889,-120.64027778,CA,7.1025,11.1466666666667,67.15,0.0,1244.00733333333,0.0
300202415,5 MILE,Smoking,0.1,0,39.31666667,-120.89333333,CA,5.8575,16.5525,53.0,0.596666666666667,40.8093333333333,0.0
300202416,RELIEF,Lightning,0.1,0,39.35305556,-120.84444444,CA,6.32,11.448,94.145,1.955,40.767,0.0
300202417,MONTEZ,Miscellaneous,0.1,0,39.35,-120.43305556,CA,5.444,2.266,61.0,0.563333333333333,792.056666666667,0.0
300202418,QUARTZ,Lightning,0.1,0,39.46694444,-120.64666667,CA,5.45,14.725,,,1231.773,0.0
300202419,FIDDLE,Lightning,0.5,0,39.53333333,-120.97388889,CA,7.99666666666667,9.725,55.0,4.92,703.749333333333,0.0
300202420,BALD,Lightning,0.75,0,39.60027778,-120.87916667,CA,4.81666666666667,16.945,51.0,4.47,992.124,0.0
300202421,SARDINE,Lightning,0.1,0,39.60666667,-120.62305556,CA,3.12,15.56,,,1300.48,0.0
300202422,BACKBONE,Lightning,1.0,0,39.35472222,-120.92055556,CA,6.80333333333333,23.8,33.5,0.225,26.416,0.0
300202423,BERGER,Lightning,0.1,0,39.63138889,-120.64694444,CA,4.41,16.11,,,1299.464,0.0
300202424,GOOSE,Campfire,0.25,0,39.6175,-120.63916667,CA,3.51,13.89,,,1303.02,0.0
300202425,RED,Campfire,0.5,0,39.45527778,-120.61222222,CA,5.46,15.555,,,1286.383,0.0
300202426,SCOTTS,Campfire,0.1,0,39.29666667,-120.92111111,CA,5.495,11.125,58.6933333333333,2.07333333333333,563.88,51.0
300202427,PIERCE,Smoking,0.1,0,39.33305556,-120.58694444,CA,6.7675,11.0825,33.65,1.54,1228.979,0.0
300202428,CONSERVATION,Miscellaneous,0.1,0,39.30638889,-120.91638889,CA,5.6675,12.2775,68.5733333333333,0.686666666666667,601.091,49.25
300202429,POORMAN,Lightning,4.0,0,39.37,-120.75527778,CA,6.46,21.4525,33.515,0.0,412.496,0.0
300202430,BEND,Miscellaneous,0.5,0,39.31277778,-120.48,CA,5.6525,9.09,75.5,0.69,907.372666666667,0.0
300202431,RAINBOW,Lightning,0.1,0,39.31805556,-120.505,CA,6.51,10.0,78.5,0.695,907.372666666667,0.0
300202432,YUBA,Arson,0.1,0,39.30888889,-120.60944444,CA,5.42333333333334,5.07333333333333,36.44,0.0,1274.826,0.0
300202433,PHOENIX,Campfire,0.1,0,39.37805556,-120.5025,CA,8.0825,11.6,37.0,1.08,1000.379,0.0
300202434,CORNISH,Lightning,0.1,0,39.51027778,-120.77638889,CA,7.4225,10.9266666666667,78.0,0.9,960.247,0.0
300202435,SIERRA,Campfire,0.1,0,39.63055556,-120.55861111,CA,6.63,13.89,,,1259.332,0.0
300202436,BOX,Lightning,0.1,0,39.47416667,-120.72833333,CA,6.63,16.67,,,1183.30133333333,0.0
300202437,ROCK,Lightning,0.1,0,39.32666667,-120.92583333,CA,6.4325,20.3625,65.7733333333333,0.686666666666667,26.416,0.0
300202438,FRENCHY,Lightning,0.5,0,39.45027778,-121.11916667,CA,5.85666666666667,14.44,55.0,6.7,811.360666666667,0.0
300202439,HILL,Miscellaneous,0.1,0,39.30694444,-120.7125,CA,3.615,19.335,21.53,1.54,393.784666666667,0.0
300202440,BOUNTIFUL,Campfire,0.5,0,39.40444444,-120.90444444,CA,7.82666666666667,13.875,52.0,0.0,36.2373333333333,0.0
300202441,CRAIGS,Arson,0.25,0,39.64416667,-120.92416667,CA,5.05666666666667,11.665,35.0,6.7,988.06,0.0
300202442,MILL,Lightning,1.7,0,39.48583333,-121.07833333,CA,4.765,12.22,85.0,7.15,4.318,0.0
300202443,LUCKY,Debris Burning,0.1,0,39.4725,-120.87611111,CA,7.83,10.56,,,919.099,0.0
300202444,INDEPENDENCE,Lightning,0.1,0,39.46111111,-120.79388889,CA,7.25,17.78,,,1143.0,0.0
300202445,MEADOW,Lightning,0.1,0,39.43333333,-120.45333333,CA,8.77,8.33,71.0,1.3,325.628,0.0
300202446,JACKSON,Lightning,0.1,0,39.47666667,-120.51638889,CA,7.09,12.5,,,1234.694,0.0
300202447,SCOUT,Lightning,0.1,0,39.55361111,-120.36833333,CA,7.85666666666667,14.5,,0.49,527.473333333333,0.0
300202448,RIDGE,Lightning,0.1,0,39.52916667,-120.49361111,CA,8.35,17.22,,,1260.602,0.0
300202449,LEMON,Lightning,0.1,0,39.57083333,-120.29138889,CA,7.91333333333333,13.5333333333333,,0.49,523.24,0.0
300202450,INA,Lightning,0.1,0,39.71527778,-120.17472222,CA,6.11,17.78,,,,0.0
300202451,TREASURE,Lightning,0.1,0,39.54888889,-120.38027778,CA,7.94,14.5,,0.49,527.473333333333,0.0
300202452,PASS,Lightning,0.2,0,39.52527778,-120.50361111,CA,8.975,12.78,,,1263.269,0.0
300202454,RICE,Lightning,0.1,0,39.51027778,-120.3525,CA,5.05333333333333,12.8333333333333,,0.8,584.2,0.0
300202455,BEAR,Lightning,0.75,0,39.52888889,-120.56972222,CA,6.09,16.67,,,1270.889,0.0
300202456,PERAZZO,Lightning,0.1,0,39.46861111,-120.36638889,CA,6.504,13.366,72.0,0.94,621.3856,0.0
300202457,LOLA,Lightning,0.1,0,39.43083333,-120.37888889,CA,5.892,13.366,72.0,0.94,621.3856,0.0
300202460,TROSI,Lightning,0.1,0,39.54888889,-120.17138889,CA,6.8375,12.1566666666667,65.0,0.67,430.5935,0.0
300202461,LOYALTON,Debris Burning,0.1,0,39.66861111,-120.22083333,CA,8.44,16.67,48.0,2.23,161.798,0.0
300202462,7,Equipment Use,0.1,0,39.49361111,-120.28916667,CA,2.67666666666667,5.3,,0.67,599.44,0.0
300202463,HAYPRESS,Campfire,0.1,0,39.53333333,-120.53333333,CA,7.84,15.555,,,1286.383,0.0
300202464,SAND,Lightning,0.1,0,39.37666667,-120.3875,CA,5.436,5.352,96.5,0.395,958.977,0.0
300202465,SIERRA,Miscellaneous,0.1,0,39.59694444,-120.34972222,CA,8.22,7.9,,,20.32,0.0
300202466,MILTON,Children,0.1,0,39.53583333,-120.58833333,CA,5.46,12.78,,,1272.794,0.0
300202467,MEADOW,Lightning,0.1,0,39.40916667,-120.45472222,CA,8.025,11.1,100.0,0.785,861.6315,0.0
300202468,DODGE,Lightning,0.1,0,39.65361111,-120.17277778,CA,9.19,13.89,65.0,0.0,109.728,0.0
300202469,ELEPHANT,Lightning,0.1,0,39.71472222,-120.16638889,CA,6.29,15.0,,,,0.0
300202470,BABBIT,Lightning,0.1,0,39.59166667,-120.10138889,CA,7.1425,11.8533333333333,75.0,0.15,413.342666666667,0.0
300202471,BONTA,Lightning,0.1,0,39.52833333,-120.39527778,CA,8.03,14.3475,,0.49,527.473333333333,0.0
300202472,DARK,Lightning,0.1,0,39.56833333,-120.42277778,CA,9.24,7.3,,,426.72,0.0
300202473,ASPEN,Lightning,0.1,0,39.51472222,-120.54777778,CA,6.97333333333333,12.225,,,1232.281,0.0
300202474,BALD,Lightning,0.1,0,39.525,-120.49388889,CA,8.8,17.22,,,1227.328,0.0
300202475,POPE,Campfire,0.1,0,38.93333333,-120.03305556,CA,3.884,8.83,92.79,1.19333333333333,654.05,30.5714285714286
300202476,KING FIRE,Lightning,0.25,0,39.25972222,-120.00805556,CA,2.715,16.39,46.5,0.5575,1690.878,35.0
300202479,SIERRA,Lightning,0.5,0,38.79194444,-120.05138889,CA,6.585,5.7,79.2,1.44,738.716666666667,33.2352941176471
300202480,WOOD,Campfire,0.1,0,39.09222222,-120.215,CA,4.545,2.7925,37.0,0.45,279.4635,33.5
300202481,COYOTEE,Lightning,0.1,0,38.84666667,-120.00222222,CA,4.48,4.0,69.6,2.06,494.453333333333,22.6
300202483,THOMPSON,Lightning,0.1,0,38.80083333,-119.955,CA,5.395,7.7275,82.74,2.06,524.086666666667,29.2777777777778
300202484,POPE FIRE 2,Arson,0.07,0,38.935,-120.0325,CA,3.61333333333333,6.33333333333333,64.33,2.57,679.45,26.5172413793103
300202485,CAMP,Arson,0.1,0,38.92861111,-120.02861111,CA,3.845,8.5075,60.085,1.54,681.99,42.4285714285714
300202486,WATSON,Campfire,0.1,0,39.22444444,-120.13666667,CA,5.0125,7.5225,74.96,0.0,375.073333333333,57.875
300202487,50 ROAD,Miscellaneous,0.1,0,39.22388889,-120.1375,CA,5.0025,7.5225,74.96,0.0,375.073333333333,57.875
300202488,FALLEN 2,Miscellaneous,0.1,0,38.92416667,-120.0525,CA,4.23,6.942,64.25,0.43,650.24,23.625
300202489,PASS 2,Miscellaneous,0.1,0,38.79444444,-120.00361111,CA,6.2825,10.075,60.19,1.54,684.953333333333,31.9375
300202491,MARGERY,Campfire,0.1,0,38.85305556,-120.11111111,CA,5.27,7.4725,15.0,0.67,745.066666666667,43.2777777777778
300202492,PASS,Campfire,0.1,0,38.79694444,-120.00583333,CA,6.22,7.9,85.97,1.54,666.326666666667,30.5714285714286
300202493,SAWMILL FIRE,Lightning,0.1,0,38.88388889,-120.01361111,CA,3.6825,6.285,85.79,1.66,668.02,25.75
300202494,SIERRA 2,Miscellaneous,0.25,0,38.91416667,-119.98194444,CA,3.192,8.594,65.7866666666667,0.5875,543.56,24.125
300203019,LICK MTN,Lightning,0.2,0,41.99361111,-123.14333333,CA,8.56,15.0,67.0,3.13,338.582,0.0
300203106,OAK,Lightning,0.2,0,41.95388889,-122.95666667,CA,8.92,16.1233333333333,41.5,1.565,545.930666666667,0.0
300204147,JOBS,Lightning,0.1,0,38.875,-119.83666667,CA,5.09333333333333,5.43666666666667,41.0,0.45,294.64,29.1111111111111
300204148,MITCHELL CANYON,Campfire,0.1,0,39.57222222,-120.02972222,CA,4.45,11.8566666666667,34.3333333333333,2.83,245.237,0.0
300204152,SWEET,Lightning,0.1,0,38.3775,-119.35305556,CA,7.12333333333333,6.20666666666667,87.585,0.45,369.189,0.0
300204167,GRASSHOPPER,Lightning,15.0,0,34.525,-118.64111111,CA,6.4625,24.63,47.0,1.79,236.6645,0.0
300204168,CAPRA,Miscellaneous,0.1,0,34.42944444,-118.35555556,CA,7.75,14.305,88.75,2.1225,321.818,0.0
300204169,CHILAO,Lightning,0.1,0,34.33638889,-118.01861111,CA,5.6775,22.085,53.25,1.3425,277.368,76.25
300204171,TRAIL,Miscellaneous,0.1,0,34.38805556,-117.82611111,CA,6.07,8.055,35.5,2.905,234.061,0.0
300204172,LOPEZ,Children,0.5,0,34.31,-118.37888889,CA,3.995,15.1325,85.1375,3.085,266.827,53.5
300204173,GOLD,Arson,0.1,0,34.315,-118.34277778,CA,4.6425,23.4725,20.5,0.7825,293.116,68.0
300204174,FLATS,Miscellaneous,0.1,0,34.34277778,-118.01027778,CA,5.38333333333333,17.0366666666667,36.0,0.746666666666667,300.99,60.875
300204175,DRAINAGE,Lightning,0.1,0,34.33916667,-118.00083333,CA,6.4875,22.085,53.25,1.3425,277.368,76.25
300204176,PAXTON,Equipment Use,0.1,0,34.29444444,-118.39805556,CA,4.0125,23.185,42.0025,1.1175,321.945,104.875
300204177,MAREK,Equipment Use,0.1,0,34.30666667,-118.34583333,CA,4.475,22.9175,31.0,0.895,321.945,54.75
300204178,OROVISTA,Miscellaneous,0.25,0,34.28166667,-118.30861111,CA,4.47,19.63,49.1866666666667,0.596666666666667,258.572,100.375
300204179,TWOTEN,Equipment Use,0.25,0,34.28472222,-118.40055556,CA,4.2,9.7175,79.26,3.0175,13.716,39.375
300204180,RAMP,Equipment Use,0.25,0,34.29027778,-118.40055556,CA,4.095,14.02,15.88,2.9025,13.716,41.125
300204181,WILDWOOD,Arson,1.5,0,34.29416667,-118.23972222,CA,5.69,18.7525,24.0,1.79,23.876,49.375
300204182,JOSEPHINE,Equipment Use,0.1,0,34.28472222,-118.18027778,CA,4.54,19.8166666666667,22.0,1.49333333333333,32.004,59.875
300204183,CLEAR,Equipment Use,0.1,0,34.27138889,-118.17222222,CA,4.66,19.9975,22.5,1.8225,57.7426666666667,45.25
300204184,GREY,Equipment Use,0.1,0,34.30583333,-118.39555556,CA,3.9025,8.625,25.1525,2.1225,14.859,38.875
300204185,WHEATLAND,Equipment Use,11.0,0,34.27916667,-118.33666667,CA,4.15,14.4433333333333,23.2,1.19333333333333,9.398,33.0
300204186,JEEP,Equipment Use,0.1,0,34.60944444,-118.71166667,CA,5.42,8.89,35.5,2.01,205.105,0.0
300204187,WAYSIDE,Equipment Use,4.0,0,34.45138889,-118.60777778,CA,4.964,9.648,39.8,1.4,185.801,79.5
300204188,TRUCK,Equipment Use,0.1,0,34.56916667,-118.68805556,CA,5.6875,11.4833333333333,21.3333333333333,6.55666666666667,179.7685,0.0
300204189,CROSSOVER,Miscellaneous,3.0,0,34.55777778,-118.67444444,CA,5.7775,10.9266666666667,45.3333333333333,5.66333333333333,185.801,0.0
300204190,BOUQUET,Equipment Use,0.25,0,34.55444444,-118.40833333,CA,7.64333333333333,12.6,39.0,1.19333333333333,78.994,0.0
300204191,SPOT,Miscellaneous,0.1,0,34.68111111,-118.78083333,CA,6.72,6.555,24.68,10.51,215.138,0.0
300204192,WIND,Miscellaneous,5.0,0,34.49638889,-118.60722222,CA,6.386,14.244,71.8,1.758,222.504,74.25
300204193,LAGO,Equipment Use,0.1,0,34.67083333,-118.76583333,CA,6.355,17.21,51.53,7.525,231.394,0.0
300204194,BOX,Miscellaneous,0.1,0,34.47583333,-118.30472222,CA,6.48,15.56,78.0,3.58,114.3,0.0
300204195,BLUE,Miscellaneous,3.0,0,34.46388889,-118.48222222,CA,3.718,16.76,63.0,0.834,201.676,169.875
300204196,CASTAIC,Miscellaneous,15.0,0,34.51111111,-118.63333333,CA,6.784,16.9475,78.75,2.0125,194.7545,0.0
300204197,CALGROVE,Miscellaneous,238.0,0,34.34833333,-118.53555556,CA,3.3375,18.6125,51.75,1.7875,244.475,156.555555555556
300204198,GATOR,Miscellaneous,5.0,0,34.43277778,-118.395,CA,6.1875,19.17,44.75,1.7875,260.223,161.25
300204199,RIDGE,Miscellaneous,9.0,0,34.51888889,-118.63583333,CA,6.765,22.64,43.75,2.3475,233.087333333333,0.0
300204200,TULA,Miscellaneous,1.5,0,34.45166667,-118.53222222,CA,2.572,18.266,75.2,0.438,201.676,89.0
300204201,GALDON,Equipment Use,3.0,0,34.46222222,-118.47111111,CA,3.998,17.122,78.6,1.99,201.676,75.875
300204202,REMSEN,Miscellaneous,12.0,0,34.35916667,-118.50722222,CA,3.642,15.5,77.0,0.732,287.274,58.75
300204203,RED,Equipment Use,0.1,0,34.54722222,-118.65972222,CA,6.165,17.7766666666667,46.0,2.08666666666667,194.7545,0.0
300204204,ROVER,Miscellaneous,0.5,0,34.50222222,-118.23638889,CA,6.235,17.22,61.5,2.24,144.018,0.0
300204205,HIGHWAY,Lightning,0.1,0,34.61333333,-118.73083333,CA,6.38333333333333,24.72,39.73,1.995,175.895,0.0
300204206,TEMPLIN,Miscellaneous,0.11,0,34.57388889,-118.69583333,CA,5.665,19.8133333333333,57.3333333333333,2.68,180.594,0.0
300204207,SHRUB,Equipment Use,0.1,0,34.61694444,-118.41055556,CA,5.56,17.92,23.5,2.6825,236.897333333333,0.0
300204208,WHITAKER,Equipment Use,0.1,0,34.58472222,-118.71,CA,5.8325,19.4433333333333,50.3333333333333,2.38333333333333,180.594,0.0
300204209,COPCO,Miscellaneous,1.0,0,34.71638889,-118.79805556,CA,4.58,17.2,62.62,7.2,,0.0
300204210,FIVE,Equipment Use,33.0,0,34.55555556,-118.67222222,CA,5.8,20.74,36.33333333333329,2.38333333333333,180.594,0.0
300204211,TEXAS,Equipment Use,0.1,0,34.51555556,-118.44861111,CA,7.0125,18.2075,46.25,0.6625,235.458,0.0
300204212,WARM,Arson,300.0,1,34.60777778,-118.5625,CA,4.985,25.56,22.5,4.245,248.793,0.0
300204213,BRIDGE,Campfire,0.1,0,34.62444444,-118.74416667,CA,6.61,16.385,33.23,3.14,175.895,0.0
300204214,BALL,Miscellaneous,0.1,0,34.51666667,-118.58888889,CA,6.69,19.632,66.8,1.784,281.516666666667,61.25
300204215,LOG,Campfire,0.1,0,34.61555556,-118.74416667,CA,6.40666666666667,21.96,34.045,6.835,175.895,0.0
300204216,ALAMO,Equipment Use,0.1,0,34.67611111,-118.77555556,CA,6.565,19.17,34.68,1.995,254.762,0.0
300204217,CARLOS,Lightning,0.1,0,34.67444444,-118.80638889,CA,7.425,23.34,42.41,2.51,254.762,0.0
300204218,LIGHTNING,Lightning,0.1,0,34.70222222,-118.82083333,CA,7.745,20.43,51.945,3.09,,0.0
300204220,SAND,Equipment Use,0.1,0,34.59805556,-118.71083333,CA,6.3925,12.5933333333333,38.0,2.38333333333333,151.0665,0.0
300204221,PICKUP,Equipment Use,0.1,0,34.55805556,-118.67444444,CA,5.7775,13.89,37.33333333333329,3.27666666666667,179.7685,0.0
300204222,VISTA,Miscellaneous,0.1,0,34.62861111,-118.72444444,CA,6.77,5.57,91.155,2.695,149.86,0.0
300204223,DEVILS,Miscellaneous,1.3,0,34.41472222,-117.83277778,CA,5.5,18.61,13.5,0.45,264.922,0.0
300204224,FREEWAY,Equipment Use,11.2,0,34.55055556,-118.66583333,CA,6.1075,18.3333333333333,37.6666666666667,5.66333333333333,194.7545,0.0
300204225,VERDUGO,Lightning,0.1,0,34.38666667,-117.72416667,CA,5.78,20.1925,44.0,2.08666666666667,265.938,63.125
300204226,JUNCTION,Equipment Use,4.0,0,34.33861111,-118.50638889,CA,3.684,15.692,73.0,1.032,287.274,62.375
300204227,LEONA,Arson,0.25,0,34.59805556,-118.27083333,CA,8.64666666666667,21.7366666666667,56.7933333333333,2.235,152.146,52.3125
300204228,PINES,Miscellaneous,200.0,0,34.37722222,-117.68611111,CA,4.685,17.7325,19.6666666666667,1.19333333333333,401.066,56.7272727272727
300204229,EMMA,Arson,0.5,0,34.49666667,-118.04944444,CA,7.3225,17.7075,42.115,2.4075,162.433,69.75
300204230,BPL,Arson,0.1,0,34.49138889,-118.05638889,CA,7.385,17.7075,42.115,2.4075,162.433,69.75
300204231,DESERT,Lightning,0.1,0,34.3725,-117.61083333,CA,5.526,19.902,67.5,0.7825,264.795,78.25
300204232,CAMPGROUND,Lightning,0.1,0,34.38944444,-117.82111111,CA,7.27666666666667,18.7033333333333,71.0,0.746666666666667,321.818,0.0
300204233,GREEN,Miscellaneous,0.1,0,34.63944444,-118.38055556,CA,3.17,25.5566666666667,24.6666666666667,3.42666666666667,182.626,0.0
300204234,PUNCH,Lightning,0.35,0,34.40444444,-117.90055556,CA,6.475,20.555,62.0,1.79,204.597,0.0
300204235,JOHNSON,Miscellaneous,48.0,0,34.67138889,-118.355,CA,4.7725,13.195,67.25,2.5725,182.626,0.0
300204236,ESCONDIDO,Equipment Use,0.1,0,34.49222222,-118.28222222,CA,5.81,20.0,53.0,1.79,154.432,0.0
300204237,JUNIPER,Lightning,0.1,0,34.46694444,-117.89277778,CA,2.8,20.0,68.0,0.9,152.654,0.0
300204238,STRIKE,Lightning,0.2,0,34.71305556,-118.57972222,CA,8.295,23.62,48.295,2.885,345.44,0.0
300204239,VINCENT,Lightning,0.1,0,34.36722222,-117.75972222,CA,5.99,20.37,56.6666666666667,0.746666666666667,345.059,0.0
300204240,GAP,Lightning,0.25,0,34.35277778,-117.7675,CA,6.54,20.37,56.6666666666667,0.746666666666667,345.059,0.0
300204241,NELSON,Lightning,0.1,0,34.38,-117.67805556,CA,4.6225,20.27,59.0,0.596666666666667,503.682,64.875
300204242,LIEBRE,Lightning,1.0,0,34.72666667,-118.68388889,CA,2.58,22.8,49.59,3.09,,0.0
300204243,CAMP,Lightning,0.1,0,34.69,-118.44888889,CA,5.4775,22.9175,48.0,2.345,242.316,0.0
300204244,GUFFY,Campfire,0.1,0,34.34555556,-117.66111111,CA,5.526,18.39,35.5,0.4475,200.787,106.875
300204245,WATERMAN,Lightning,0.8,0,34.34416667,-117.93583333,CA,7.64,19.8166666666667,57.6666666666667,1.04333333333333,214.291333333333,0.0
300204246,BANDIDO,Lightning,0.1,0,34.36138889,-117.99916667,CA,5.92333333333333,21.1133333333333,55.3333333333333,1.49,160.697333333333,76.25
300204247,YUCCA,Lightning,0.1,0,34.36944444,-117.98916667,CA,6.16333333333333,21.8533333333333,53.3333333333333,1.34,208.28,76.25
300204248,HORN,Lightning,0.1,0,34.36638889,-117.74944444,CA,5.76,20.37,56.6666666666667,0.746666666666667,345.059,63.6666666666667
300204249,DAWSON,Lightning,1.0,0,34.39833333,-117.68305556,CA,3.38,19.0266666666667,35.5,1.785,501.142,77.875
300204250,DEL,Equipment Use,0.1,0,34.65861111,-118.75527778,CA,6.18,19.445,34.58,3.21,278.13,0.0
300204251,RIG,Equipment Use,0.1,0,34.56194444,-118.68222222,CA,5.665,14.63,63.0,3.87333333333333,40.513,0.0
300204252,DRINK,Campfire,0.1,0,34.52694444,-118.5325,CA,6.2725,14.96,73.5,0.6875,4.826,64.0
300204253,GRASS,Lightning,0.1,0,34.64111111,-118.4125,CA,4.5025,22.9175,48.0,2.345,242.316,0.0
300204254,EAST,Lightning,0.1,0,34.37694444,-117.66833333,CA,4.475,15.2575,76.3333333333333,0.596666666666667,27.432,48.625
300204255,GROVE,Campfire,1.0,0,34.27277778,-118.32138889,CA,4.11666666666667,14.8266666666667,31.16,1.55666666666667,9.398,30.4285714285714
300204256,DIMAS,Arson,0.25,0,34.14722222,-117.77666667,CA,4.5075,15.975,35.75,1.1175,258.191,0.0
300204257,PERSINGER,Equipment Use,0.25,0,34.20027778,-117.83138889,CA,4.99,12.0366666666667,86.3333333333333,1.34333333333333,278.892,0.0
300204258,CREEK,Miscellaneous,0.1,0,34.24722222,-117.61222222,CA,5.805,8.9,76.0,0.446666666666667,379.222,80.5
300204259,LUCY,Miscellaneous,1.0,0,34.15333333,-117.87444444,CA,3.365,13.1975,73.25,0.56,205.74,0.0
300204260,SHERIFF,Equipment Use,0.1,0,34.28916667,-117.83416667,CA,7.07,19.44,53.0,2.23,322.834,0.0
300204261,ICEHOUSE,Equipment Use,0.1,0,34.25027778,-117.635,CA,5.25333333333333,22.5,29.0,0.45,0.0,162.0
300204262,BICHOTA,Equipment Use,0.25,0,34.26166667,-117.85027778,CA,8.4,22.36,59.0,0.4475,322.834,0.0
300204263,SINGLE,Lightning,0.1,0,34.35805556,-117.73472222,CA,6.58,19.0275,68.0,0.6725,321.818,76.0
300204264,MORRIS,Miscellaneous,6.0,0,34.19305556,-117.86444444,CA,5.08,18.195,82.25,0.56,344.424,0.0
300204265,SHINN,Campfire,11.0,0,34.175,-117.67055556,CA,4.37666666666667,14.63,64.3333333333333,0.9,314.706,0.0
300204266,ROAD,Lightning,0.1,0,34.31111111,-117.8525,CA,9.1,24.165,49.0,1.12,265.43,0.0
300204267,ANTONIO,Lightning,0.25,0,34.29666667,-117.69472222,CA,5.6925,20.9725,56.25,0.895,424.053,79.1111111111111
300204268,CABIN,Miscellaneous,1700.0,1,34.25611111,-117.85694444,CA,8.07,22.365,49.0,0.6725,344.424,0.0
300204269,REGISTER,Miscellaneous,0.1,0,34.27361111,-117.62777778,CA,6.232,14.0275,24.25,1.0075,41.8253333333334,52.75
300204270,VAN,Equipment Use,0.25,0,34.21777778,-117.85833333,CA,6.11,17.6425,38.0,0.895,290.83,0.0
300204271,COLDBROOK,Miscellaneous,0.25,0,34.29194444,-117.83944444,CA,7.4,13.33,34.0,0.9,288.798,0.0
300204272,RIVER,Campfire,0.5,0,34.15111111,-117.91944444,CA,2.2275,11.335,69.0,0.52,197.104,80.375
300204273,WEST,Campfire,0.25,0,34.23722222,-117.88972222,CA,7.3075,13.8925,84.5,0.5625,197.104,0.0
300204274,OSBORNE,Miscellaneous,2.0,0,34.27333333,-118.38611111,CA,4.385,10.27,77.5625,1.005,254.127,74.75
300204275,SIERRA,Equipment Use,4.0,0,34.34583333,-118.50444444,CA,3.654,9.616,87.4,0.78,271.526,84.875
300204276,SHOOTING,Miscellaneous,1.5,0,34.30888889,-118.36333333,CA,4.2275,10.8375,87.8375,1.5675,266.446,50.7142857142857
300204277,PICNIC,Campfire,0.1,0,34.26583333,-118.14694444,CA,3.87,12.3625,45.0,1.475,326.474666666667,85.375
300204278,DRONEFIELD,Miscellaneous,0.1,0,34.26861111,-118.39138889,CA,4.02333333333333,17.7733333333333,29.75,0.746666666666667,203.454,67.75
300204279,OAK,Campfire,0.1,0,34.30944444,-118.32361111,CA,5.1075,10.9775,50.25,2.6825,251.079,74.0
300204280,WASH,Campfire,0.1,0,34.27666667,-118.30666667,CA,4.36333333333333,11.3066666666667,65.8033333333333,1.11,197.104,44.125
300204281,FOOTHILL,Miscellaneous,0.25,0,34.26777778,-118.33805556,CA,3.98333333333333,10.2033333333333,49.6833333333333,1.11,200.406,59.0
300204282,WINTER,Campfire,0.1,0,34.20194444,-118.02361111,CA,3.6675,9.0375,71.3333333333333,0.325,243.586,62.75
300204283,RANCH,Equipment Use,11.0,0,34.55805556,-118.67472222,CA,5.775,22.9633333333333,29.6666666666667,5.51333333333333,40.513,0.0
300204284,PARK,Arson,0.1,0,34.48666667,-118.61194444,CA,6.252,5.866,84.0,2.068,11.684,41.4285714285714
300204285,SHED,Equipment Use,0.1,0,34.56527778,-118.39722222,CA,5.895,8.33,25.0,3.8,0.508,0.0
300204286,MARPLE,Miscellaneous,0.5,0,34.53583333,-118.65388889,CA,6.2025,12.2233333333333,16.3333333333333,8.19666666666667,37.1475,0.0
300204287,MOJO,Miscellaneous,0.1,0,34.475,-118.30722222,CA,6.59,3.89,29.0,1.34,6.858,0.0
300204288,POINT,Arson,0.1,0,34.37694444,-117.70638889,CA,5.3525,2.715,29.3333333333333,0.596666666666667,38.608,33.375
300204289,ALISO,Smoking,0.1,0,34.44166667,-118.14861111,CA,5.01333333333333,11.2933333333333,25.0,2.53333333333333,13.462,35.0
300204290,GOLDEN,Miscellaneous,0.2,0,34.56305556,-118.68277778,CA,5.6725,1.29666666666667,65.3333333333333,9.39,29.972,0.0
300204291,THREEPOINTS,Equipment Use,3.0,0,34.72638889,-118.60361111,CA,8.045,23.345,39.775,3.85,245.872,0.0
300204292,SPUNKY,Equipment Use,6.1,0,34.585,-118.31583333,CA,6.675,21.665,34.5,0.895,152.146,0.0
300204293,VIEW,Equipment Use,0.1,0,32.84083333,-116.695,CA,2.71,18.788,43.6,0.762,20.828,0.0
300204294,HOLLYHOCK,Campfire,0.1,0,32.88583333,-116.44277778,CA,1.14666666666667,15.86,40.6333333333333,1.8,46.482,0.0
300204295,WILDWOOD,Equipment Use,0.1,0,32.83944444,-116.61444444,CA,4.698,16.998,20.6,1.162,36.322,0.0
300204296,EAST,Equipment Use,4.75,0,32.83861111,-116.70277778,CA,2.526,23.534,30.2,0.556,24.13,0.0
300204297,PARK,Miscellaneous,22.0,0,32.68527778,-116.52583333,CA,4.1725,9.86,74.9275,1.555,26.416,0.0
300204298,BEAR,Lightning,0.1,0,32.81833333,-116.52972222,CA,4.7425,18.0575,70.5,0.56,40.386,0.0
300204299,CORNERS,Lightning,5.0,0,32.69416667,-116.53055556,CA,4.49,18.745,66.59,0.8325,31.242,0.0
300204300,TRAIL,Lightning,1.0,0,32.69305556,-116.46277778,CA,3.755,18.8825,65.84,0.945,31.242,0.0
300204301,CHERRY,Equipment Use,0.1,0,32.78833333,-116.495,CA,4.4225,16.6675,70.75,0.895,33.528,0.0
300204302,CHECKPOINT,Equipment Use,0.1,0,32.81194444,-116.51361111,CA,3.54,14.2566666666667,49.0,1.04333333333333,31.242,0.0
300204303,LAGUNA,Campfire,0.1,0,32.87722222,-116.44444444,CA,1.08,13.335,60.0,0.225,0.762,0.0
300204304,CREEK,Lightning,0.6,0,32.75472222,-116.46194444,CA,5.05,22.0,58.0,1.522,26.416,0.0
300204305,HOLLYHOCK 2,Campfire,0.1,0,32.88583333,-116.44277778,CA,1.14666666666667,18.77,13.9333333333333,4.94666666666667,23.368,0.0
300204306,S'MORES,Campfire,0.1,0,32.88472222,-116.44055556,CA,1.01666666666667,16.4433333333333,16.9666666666667,3.7,23.368,0.0
300204307,PINE,Equipment Use,0.1,0,32.81916667,-116.53722222,CA,4.9025,12.36,22.5,0.785,40.132,0.0
300204308,TIME,Campfire,0.1,0,32.88472222,-116.82166667,CA,3.33,20.1866666666667,57.6666666666667,0.746666666666667,,53.1875
300204309,BLUFF,Miscellaneous,0.1,0,32.79666667,-116.64305556,CA,4.524,14.222,48.6,1.076,36.322,0.0
300204310,OAK,Campfire,0.1,0,32.88472222,-116.82166667,CA,3.33,17.41,94.6666666666667,0.45,,47.25
300204311,LAGO,Equipment Use,0.1,0,32.81333333,-116.72222222,CA,2.154,23.444,37.6,0.896,,0.0
300204312,NARROWS,Lightning,0.1,0,32.6925,-116.47388889,CA,3.8675,21.3625,75.485,1.6325,26.416,0.0
300204313,PEAK,Miscellaneous,0.1,0,32.85861111,-116.73333333,CA,2.46,22.3166666666667,62.3333333333333,0.686666666666667,,0.0
300204314,LAST,Miscellaneous,0.1,0,32.86111111,-116.72611111,CA,2.59666666666667,22.24,61.6666666666667,0.39,,0.0
300204315,VIEJAS,Miscellaneous,0.25,0,32.84111111,-116.70972222,CA,2.506,13.822,35.6,1.264,227.33,0.0
300204316,ALPINE,Equipment Use,0.1,0,32.83583333,-116.70583333,CA,2.47,16.232,24.6,1.36,227.33,0.0
300204317,CREEK,Miscellaneous,0.1,0,32.85666667,-116.52305556,CA,4.5,13.1925,26.75,3.0175,294.894,0.0
300204318,BARRETT,Miscellaneous,0.25,0,32.71055556,-116.675,CA,4.8325,8.0525,92.85,1.27,266.446,0.0
300204319,ANDERSON,Equipment Use,0.1,0,32.85444444,-116.74194444,CA,2.21666666666667,11.63,46.3333333333333,0.716666666666667,,0.0
300204320,INTERSTATE,Miscellaneous,0.1,0,32.83361111,-116.73027778,CA,1.9925,6.95,83.0,0.2475,,0.0
300204321,24,Miscellaneous,0.2,0,32.88055556,-116.42333333,CA,0.57,6.385,27.85,6.445,208.534,0.0
300204322,GRINDER,Campfire,0.1,0,32.90722222,-116.51111111,CA,5.326,13.674,69.36,0.99,19.3886666666667,0.0
300204323,EDGE,Campfire,0.1,0,32.77277778,-116.45055556,CA,4.755,14.7225,57.25,0.3375,16.764,0.0
300204324,SECTION,Campfire,0.1,0,32.89305556,-116.48472222,CA,3.638,14.092,54.4,3.368,19.3886666666667,0.0
300204325,GUATAY,Lightning,0.1,0,32.85694444,-116.56166667,CA,5.42,19.668,66.8,1.252,36.83,0.0
300204326,EMPIRE,Lightning,0.1,0,32.73,-116.49305556,CA,4.4175,19.3325,77.1925,0.45,40.894,0.0
300204327,WOODED,Lightning,0.1,0,32.86666667,-116.45,CA,1.57,16.2966666666667,79.3333333333333,0.0,25.273,0.0
300204329,DEBRIS,Debris Burning,0.1,0,33.64527778,-117.41777778,CA,4.8325,14.03,56.5,2.1225,168.656,33.8571428571429
300204330,HOLY,Campfire,0.1,0,33.67694444,-117.51722222,CA,6.405,12.2225,83.75,0.6725,207.137,62.4666666666667
300204331,BLUE,Campfire,0.1,0,33.65083333,-117.44777778,CA,5.5675,10.4175,27.75,1.4525,197.358,42.5714285714286
300204332,DAY,Campfire,0.1,0,33.65166667,-117.40916667,CA,4.74,8.2,44.5,0.7825,206.248,45.0
300204333,CARISO,Campfire,0.1,0,33.6525,-117.41027778,CA,4.76,9.035,78.25,1.2275,242.57,89.8571428571429
300204334,CANYON,Miscellaneous,0.2,0,33.75111111,-117.57888889,CA,4.615,12.22,93.0,1.345,229.743,48.5
300204335,CADILLAC,Campfire,0.1,0,33.67361111,-117.55888889,CA,6.55,12.78,97.0,0.0,221.234,48.0
300204336,LIGHT,Campfire,0.1,0,33.6625,-117.41722222,CA,4.7175,15.14,46.75,1.23,197.358,59.5
300204337,EL CARISO,Campfire,0.1,0,33.6525,-117.41,CA,4.7575,8.2,83.25,3.4625,187.452,42.8571428571429
300204338,CRESTA,Equipment Use,7.4,0,33.525,-117.30583333,CA,4.52,14.03,59.0,1.2275,306.324,0.0
300204339,MACY,Equipment Use,5.0,0,33.65111111,-117.39,CA,4.64,12.6375,77.75,0.7825,0.254,51.1111111111111
300204340,MORGAN,Lightning,0.01,0,33.63111111,-117.38222222,CA,4.9625,20.2775,57.25,0.3375,242.57,103.333333333333
300204341,CABIN,Campfire,0.1,0,33.6825,-117.50638889,CA,6.095,18.7525,46.5,1.3425,231.902,67.375
300204342,EVERGREEN,Campfire,0.2,0,33.64222222,-117.36083333,CA,4.8175,18.3325,53.25,1.23,88.392,54.875
300204343,LOOKOUT,Equipment Use,0.1,0,33.65111111,-117.39388889,CA,4.65,20.9725,56.0,1.0075,88.392,55.125
300204344,ORTEGA,Equipment Use,0.1,0,33.60222222,-117.4575,CA,6.048,20.668,85.6,1.074,115.443,52.0
300204345,MAIN,Campfire,0.1,0,33.8275,-117.57583333,CA,4.7025,14.9875,27.88,0.8975,93.1333333333333,34.375
300204346,WILLIAMS CANYON,Equipment Use,9.0,0,33.73333333,-117.62333333,CA,3.83,8.89,24.0,5.37,,32.6666666666667
300204347,SUGARLOAF,Campfire,0.1,0,33.63027778,-117.47277778,CA,5.6275,3.0575,53.0,1.79,155.448,32.75
300204348,THIEF,Campfire,0.1,0,33.68277778,-117.50361111,CA,6.0275,7.0825,27.25,3.69,99.314,38.25
300204349,SYCAMORE,Miscellaneous,0.1,0,33.74694444,-117.63,CA,5.235,13.61,25.5,1.565,93.472,37.625
300204350,SPRING,Campfire,0.1,0,32.72722222,-116.62111111,CA,6.6225,16.8075,34.75,1.565,53.848,0.0
300204351,CREST,Campfire,0.1,0,32.73083333,-116.4725,CA,4.788,0.466,51.356,2.006,103.378,0.0
300204352,BUCKMAN,Equipment Use,0.1,0,32.78388889,-116.49444444,CA,4.816,7.334,36.6,0.896,109.728,0.0
300204353,BRONCO,Campfire,0.1,0,32.71194444,-116.5725,CA,6.01,10.415,24.5,1.23,,0.0
300204354,DYCHE,Miscellaneous,0.6,0,33.2875,-116.80888889,CA,2.54333333333333,12.6,18.0,1.12,,0.0
300204355,ROAD,Smoking,0.1,0,33.11277778,-116.81888889,CA,2.872,11.888,50.2,1.342,172.212,29.5714285714286
300204357,VALLEY,Debris Burning,0.1,0,33.29027778,-116.81527778,CA,2.32,12.05,21.5,0.45,,0.0
300204358,SUNDAY,Lightning,0.1,0,33.32388889,-116.88555556,CA,2.616,18.224,56.0,2.2375,0.0,0.0
300204359,CROSLEY,Lightning,0.25,0,33.38888889,-116.92777778,CA,4.56,23.1825,46.225,0.896666666666667,467.36,0.0
300204360,CONFERENCE,Lightning,0.1,0,33.33416667,-116.90944444,CA,3.28,20.002,47.5,1.0075,0.0,0.0
300204361,COTTONWOOD,Lightning,0.25,0,33.3775,-116.82555556,CA,2.0175,17.9175,37.0,1.9,40.005,0.0
300204362,BOUCHER,Lightning,0.1,0,33.32138889,-116.90388889,CA,3.108,20.002,47.5,1.0075,0.0,0.0
300204363,HATCHET,Lightning,0.1,0,33.32111111,-116.90277778,CA,3.082,20.002,47.5,1.0075,0.0,0.0
300204364,EVENING,Lightning,0.1,0,33.3275,-116.88722222,CA,2.638,18.224,56.0,2.2375,0.0,0.0
300204365,VAIL,Miscellaneous,0.1,0,33.47305556,-116.95777778,CA,7.14,18.9025,72.0,1.04333333333333,28.321,46.75
300204366,BOUCHER 3,Lightning,0.1,0,33.32583333,-116.90777778,CA,3.196,15.224,39.25,2.7975,39.878,0.0
300204367,FRENCH,Lightning,0.1,0,33.35555556,-116.90416667,CA,3.376,22.78,32.4,1.342,42.418,0.0
300204368,KIOSK,Lightning,0.1,0,33.32833333,-116.90194444,CA,3.052,20.002,47.5,1.0075,0.0,0.0
300204369,BOUCHER 2,Lightning,0.1,0,33.32361111,-116.90416667,CA,3.106,14.556,72.5,1.7875,39.878,0.0
300204370,CUTCA,Lightning,150.4,0,33.38361111,-116.86777778,CA,2.6975,15.0,35.75,2.5725,37.846,0.0
300204371,STATE,Debris Burning,0.1,0,33.3275,-116.89527778,CA,2.896,22.226,46.25,1.0075,89.916,0.0
300204372,WALKER,Miscellaneous,3676.0,1,37.87805556,-119.15916667,CA,5.935,-0.415,44.0,2.8925,523.748,0.0
300204373,120,Equipment Use,0.1,0,37.93666667,-119.17861111,CA,3.89333333333333,-6.11,47.0,3.00666666666667,939.8,0.0
300204374,AGNEW,Lightning,0.1,0,37.67916667,-119.07416667,CA,3.2175,9.48333333333333,50.3266666666667,2.0875,581.406,15.0
300204376,AIRPORT,Miscellaneous,0.5,0,37.62472222,-118.84194444,CA,3.81,7.505,20.585,5.665,,7.46153846153846
300204377,FLAT,Campfire,0.1,0,37.67527778,-118.95944444,CA,4.17333333333333,0.84,97.0,2.36,264.16,8.375
300204378,INN,Lightning,0.1,0,37.66416667,-119.04583333,CA,1.5275,10.81,58.42,5.9125,581.406,18.5
300204380,PONY,Lightning,0.3,0,41.58916667,-123.51583333,CA,5.28,13.89,98.0,3.13,2.54,0.0
300204381,COUNTS,Lightning,0.02,0,41.29583333,-123.09972222,CA,3.295,15.555,81.5,0.67,8.255,0.0
300204382,DRUEY,Arson,0.1,0,41.79027778,-123.38388889,CA,4.95,-1.11,53.0,7.15,770.636,0.0
300204383,GORDON,Debris Burning,3.19,0,41.78722222,-123.31027778,CA,5.4,10.0,73.0,4.92,923.036,0.0
300204384,MCCULLEY,Lightning,0.1,0,41.88666667,-123.42833333,CA,4.31,7.78,78.0,2.23,924.814,0.0
300204385,BUCKHORN,Lightning,0.3,0,41.80111111,-123.38638889,CA,4.3,15.56,40.0,2.68,923.036,0.0
300204386,HAPPY,Campfire,0.1,0,41.79222222,-123.37722222,CA,4.73,-0.56,97.0,2.68,886.46,0.0
300204387,BEAR,Miscellaneous,0.25,0,41.79166667,-123.38805556,CA,4.94,23.89,18.0,1.79,0.0,0.0
300204388,CREEK,Debris Burning,0.48,0,41.80833333,-123.38583333,CA,3.83,20.0,40.0,3.13,24.384,0.0
300204389,TANK,Arson,0.1,0,41.61055556,-123.49972222,CA,3.67,18.33,46.0,0.9,17.018,0.0
300204390,GOFF,Miscellaneous,0.06,0,41.86388889,-123.24805556,CA,5.45,12.22,21.0,1.34,42.164,0.0
300204391,SEIAD,Miscellaneous,0.3,0,41.85694444,-123.16305556,CA,9.81,8.33,64.0,2.68,42.164,0.0
300204392,AIRPORT,Arson,0.1,0,41.78972222,-123.38388889,CA,4.99,8.33,64.0,2.68,42.164,0.0
300204393,CEMETERY,Debris Burning,0.07,0,41.78416667,-123.38444444,CA,5.36,8.33,100.0,4.02,75.692,0.0
300204394,RANCH,Lightning,0.1,0,40.73611111,-121.45888889,CA,9.81,10.56,100.0,1.34,74.168,0.0
300204395,MOUNTAIN,Equipment Use,0.1,0,34.73694444,-119.99194444,CA,0.85,12.22,27.0,0.0,29.464,0.0
300204396,CAVE,Debris Burning,0.09,0,34.50583333,-119.79138889,CA,3.824,6.998,55.7666666666667,1.465,271.526,40.875
300204397,RAIL,Miscellaneous,0.01,0,34.50777778,-119.81944444,CA,4.258,11.468,63.5666666666667,1.74,271.526,40.0
300204399,BEE,Miscellaneous,0.1,0,34.51416667,-119.29305556,CA,6.125,9.935,71.5,0.3,56.388,52.5333333333333
300204400,SLOPE,Arson,0.1,0,34.47805556,-119.62638889,CA,4.6525,18.8425,51.0,3.75,33.782,41.2222222222222
300204401,BENCH,Arson,0.1,0,34.48111111,-119.63222222,CA,4.515,19.1966666666667,55.25,3.66,33.782,41.2222222222222
300204402,RED,Miscellaneous,0.1,0,34.38333333,-119.35027778,CA,4.094,16.002,61.3,0.216666666666667,117.856,36.0
300204403,BURSON,Equipment Use,27.0,0,34.47944444,-118.86833333,CA,4.424,13.7033333333333,92.0,0.0,196.680666666667,50.6111111111111
300204404,FOOTHILL,Miscellaneous,1.0,0,34.46527778,-119.2525,CA,5.6225,3.9575,46.475,0.566666666666667,50.292,35.2777777777778
300204405,PARA,Equipment Use,0.1,0,34.5425,-119.81027778,CA,4.554,21.354,54.66,1.41,3.302,40.375
300204406,MARCOS,Miscellaneous,0.1,0,34.51,-119.82333333,CA,4.354,16.492,62.69,0.4125,287.782,37.875
300204407,LAFLER,Miscellaneous,0.01,0,36.20444444,-121.73055556,CA,3.95,15.0,91.0,0.0,828.802,0.0
300204408,ROAD,Campfire,0.01,0,36.08694444,-121.61777778,CA,2.555,17.145,71.0,1.0975,894.08,0.0
300204409,WADDLE,Campfire,0.01,0,36.24138889,-121.77777778,CA,0.31,14.44,96.0,0.45,828.802,0.0
300204410,BEACH,Campfire,0.03,0,36.23861111,-121.71416667,CA,3.71,11.67,97.0,0.0,831.088,0.0
300204411,COAST,Equipment Use,0.01,0,36.20083333,-121.725,CA,4.35,17.22,40.0,0.45,16.256,0.0
300204412,GRIMES,Miscellaneous,0.01,0,36.20555556,-121.73444444,CA,3.75,7.78,76.0,0.45,754.38,0.0
300204413,STONERIDGE,Miscellaneous,0.4,0,36.22,-121.7525,CA,2.33,13.33,93.0,0.0,828.548,0.0
300204415,TRAIL,Lightning,0.1,0,34.65694444,-118.92444444,CA,6.385,15.28,97.3,,0.0,0.0
300204416,PIEDRA,Lightning,0.1,0,34.63333333,-119.27333333,CA,6.825,16.665,91.0,0.0,58.42,0.0
300204418,STAR,Lightning,0.1,0,34.86472222,-119.16472222,CA,9.61,14.165,79.0,0.0,201.93,0.0
300204419,SKY,Lightning,0.1,0,34.86833333,-119.15194444,CA,9.34,14.165,79.0,0.0,201.93,0.0
300204420,REYES,Lightning,0.1,0,34.6225,-119.24666667,CA,6.83333333333333,17.5933333333333,74.0333333333333,0.225,49.022,0.0
300204421,SAN CARLOS,Equipment Use,0.1,0,34.82333333,-118.93972222,CA,5.2375,15.9725,46.25,1.8975,100.414666666667,0.0
300204422,FRAZIER 2,Lightning,0.25,0,34.77694444,-118.98861111,CA,5.105,15.3625,56.875,0.15,130.556,0.0
300204423,MILL,Miscellaneous,2.0,0,34.82055556,-119.08805556,CA,5.81666666666667,15.1866666666667,32.3333333333333,0.743333333333333,123.571,0.0
300204424,FRAIZER 1,Lightning,0.1,0,34.76388889,-118.98833333,CA,5.205,14.6525,63.325,0.446666666666667,123.571,0.0
300204425,ASH,Miscellaneous,0.2,0,34.82,-118.95972222,CA,4.9475,14.1675,27.0,0.6725,95.758,0.0
300204427,SEYMOUR,Lightning,0.08,0,34.79694444,-119.10222222,CA,5.84666666666667,11.8533333333333,88.0,0.15,130.556,0.0
300204428,TEPUSQUET,Miscellaneous,1.07,0,35.07638889,-120.17027778,CA,8.93,21.67,36.0,2.23,159.766,0.0
300204429,PINE,Debris Burning,0.5,0,39.24583333,-122.66527778,CA,7.956,23.75,33.0,1.34,412.877,0.0
300204430,DEAFY,Campfire,0.7,0,39.30833333,-122.73944444,CA,8.01,12.64,70.25,1.19666666666667,575.945,0.0
300204431,TWIN FIRE,Debris Burning,6.0,0,39.435,-122.65805556,CA,6.4825,9.4475,45.5,1.65,560.705,0.0
300204432,BARLOW,Miscellaneous,1.0,0,40.33,-123.34333333,CA,3.84,6.945,87.0,0.0,34.163,0.0
300204433,BUCK,Lightning,1669.0,1,40.45583333,-123.55611111,CA,1.77,15.0,57.0,0.0,1.524,0.0
300204434,SPRINGS,Lightning,1.0,0,40.30583333,-123.42722222,CA,5.54333333333333,15.5533333333333,60.0,0.0,820.166,0.0
300204435,GOBBLER,Lightning,8299.0,1,40.3575,-123.44138889,CA,7.69,13.1466666666667,58.5,0.0,419.77733333333293,0.0
300204436,POWERLINE,Miscellaneous,1.0,0,40.31416667,-123.35805556,CA,4.91,13.52,49.0,0.0,829.648666666667,0.0
300204437,TIERNEY,Lightning,247.0,0,40.44666667,-123.56722222,CA,2.55,15.0,57.0,0.0,1.524,0.0
300204438,MILL,Miscellaneous,1.0,0,40.47638889,-123.595,CA,3.86,17.78,29.0,2.23,24.892,0.0
300204439,BLUFORD,Lightning,202.0,0,40.23305556,-123.52138889,CA,5.9875,17.96,45.0,0.0,852.932,0.0
300204440,HOBART,Lightning,1.0,0,40.32611111,-123.35,CA,5.68333333333333,15.5533333333333,60.0,0.0,820.166,0.0
300204441,BURNER,Lightning,1.0,0,40.46666667,-123.59083333,CA,3.53,15.0,57.0,0.0,1.524,0.0
300204442,WOOLEY,Lightning,7.0,0,41.42111111,-123.36305556,CA,7.05,20.56,56.0,0.45,5.588,0.0
300204443,BLUFF,Miscellaneous,1.5,0,41.44666667,-123.70444444,CA,7.61,18.33,54.0,1.34,0.0,0.0
300204444,GLADE,Lightning,0.6,0,40.32361111,-123.40555556,CA,5.71333333333333,14.6266666666667,95.0,0.0,819.15,0.0
300204445,BRANNON,Lightning,0.1,0,40.9625,-123.69361111,CA,5.145,20.1866666666667,67.6666666666667,1.34,1011.59733333333,0.0
300204446,CASTLE 2,Lightning,1.0,0,40.73916667,-123.50333333,CA,1.28,20.56,49.0,0.45,11.43,0.0
300204447,CASTLE 4,Lightning,0.5,0,40.72555556,-123.48638889,CA,0.59,20.56,49.0,0.45,11.43,0.0
300204448,CASTLE 1,Lightning,661.6,1,40.72388889,-123.49416667,CA,0.2,20.56,30.0,0.45,9.398,0.0
